[
  {
    "city": "Bay Minette",
    "state": "AL",
    "pop": 8044,
    "lat": 30.88296,
    "lon": -87.77305
  },
  {
    "city": "Edna",
    "state": "TX",
    "pop": 5499,
    "lat": 28.97859,
    "lon": -96.64609
  },
  {
    "city": "Bayou La Batre",
    "state": "AL",
    "pop": 2558,
    "lat": 30.40352,
    "lon": -88.24852
  },
  {
    "city": "Henderson",
    "state": "TX",
    "pop": 13712,
    "lat": 32.15322,
    "lon": -94.79938
  },
  {
    "city": "Natalia",
    "state": "TX",
    "pop": 1431,
    "lat": 29.18968,
    "lon": -98.86253
  },
  {
    "city": "Bear Creek",
    "state": "AL",
    "pop": 1070,
    "lat": 34.27482,
    "lon": -87.70058
  },
  {
    "city": "Fort Hunt",
    "state": "VA",
    "pop": 16045,
    "lat": 38.73289,
    "lon": -77.05803
  },
  {
    "city": "Yorktown",
    "state": "VA",
    "pop": 195,
    "lat": 37.23876,
    "lon": -76.50967
  },
  {
    "city": "Brighton",
    "state": "AL",
    "pop": 2945,
    "lat": 33.43428,
    "lon": -86.94721
  },
  {
    "city": "Ocean View",
    "state": "DE",
    "pop": 1882,
    "lat": 38.54511,
    "lon": -75.08907
  },
  {
    "city": "Berry",
    "state": "AL",
    "pop": 1148,
    "lat": 33.65983,
    "lon": -87.60001
  },
  {
    "city": "Trinity",
    "state": "FL",
    "pop": 10907,
    "lat": 28.18085,
    "lon": -82.68177
  },
  {
    "city": "Villas",
    "state": "FL",
    "pop": 11569,
    "lat": 26.55035,
    "lon": -81.8687
  },
  {
    "city": "Bessemer",
    "state": "AL",
    "pop": 27456,
    "lat": 33.40178,
    "lon": -86.95444
  },
  {
    "city": "Aurora",
    "state": "IN",
    "pop": 3750,
    "lat": 39.057,
    "lon": -84.90134
  },
  {
    "city": "New Pekin",
    "state": "IN",
    "pop": 1401,
    "lat": 38.50506,
    "lon": -86.01692
  },
  {
    "city": "Stockton",
    "state": "KS",
    "pop": 1329,
    "lat": 39.43807,
    "lon": -99.2651
  },
  {
    "city": "Paducah",
    "state": "KY",
    "pop": 25024,
    "lat": 37.08339,
    "lon": -88.60005
  },
  {
    "city": "Monticello",
    "state": "LA",
    "pop": 4718,
    "lat": 32.59653,
    "lon": -91.394
  },
  {
    "city": "Red Chute",
    "state": "LA",
    "pop": 6261,
    "lat": 32.55598,
    "lon": -93.61323
  },
  {
    "city": "Jessup",
    "state": "MD",
    "pop": 7137,
    "lat": 39.14927,
    "lon": -76.77525
  },
  {
    "city": "Birmingham",
    "state": "AL",
    "pop": 212237,
    "lat": 33.52066,
    "lon": -86.80249
  },
  {
    "city": "Delhi Hills",
    "state": "OH",
    "pop": 5259,
    "lat": 39.09284,
    "lon": -84.61272
  },
  {
    "city": "Turpin Hills",
    "state": "OH",
    "pop": 5099,
    "lat": 39.11006,
    "lon": -84.37994
  },
  {
    "city": "Lugoff",
    "state": "SC",
    "pop": 7434,
    "lat": 34.22737,
    "lon": -80.68925
  },
  {
    "city": "Blountsville",
    "state": "AL",
    "pop": 1684,
    "lat": 34.08149,
    "lon": -86.5911
  },
  {
    "city": "Blue Ridge",
    "state": "AL",
    "pop": 1341,
    "lat": 32.49264,
    "lon": -86.19052
  },
  {
    "city": "Buda",
    "state": "TX",
    "pop": 7295,
    "lat": 30.08521,
    "lon": -97.84028
  },
  {
    "city": "Boaz",
    "state": "AL",
    "pop": 9551,
    "lat": 34.20065,
    "lon": -86.16637
  },
  {
    "city": "Brent",
    "state": "AL",
    "pop": 4947,
    "lat": 32.93735,
    "lon": -87.16472
  },
  {
    "city": "Brewton",
    "state": "AL",
    "pop": 5408,
    "lat": 31.10518,
    "lon": -87.07219
  },
  {
    "city": "Bridgeport",
    "state": "AL",
    "pop": 2418,
    "lat": 34.94758,
    "lon": -85.71442
  },
  {
    "city": "Brook Highland",
    "state": "AL",
    "pop": 6746,
    "lat": 33.43566,
    "lon": -86.67388
  },
  {
    "city": "Brookside",
    "state": "AL",
    "pop": 1363,
    "lat": 33.63788,
    "lon": -86.91666
  },
  {
    "city": "Brookwood",
    "state": "AL",
    "pop": 1828,
    "lat": 33.25567,
    "lon": -87.32083
  },
  {
    "city": "Brundidge",
    "state": "AL",
    "pop": 2076,
    "lat": 31.72016,
    "lon": -85.81606
  },
  {
    "city": "Butler",
    "state": "AL",
    "pop": 1894,
    "lat": 32.08959,
    "lon": -88.22197
  },
  {
    "city": "Bynum",
    "state": "AL",
    "pop": 1795,
    "lat": 33.61316,
    "lon": -85.96108
  },
  {
    "city": "Cahaba Heights",
    "state": "AL",
    "pop": 5287,
    "lat": 33.464,
    "lon": -86.73193
  },
  {
    "city": "Calera",
    "state": "AL",
    "pop": 11620,
    "lat": 33.1029,
    "lon": -86.7536
  },
  {
    "city": "Camden",
    "state": "AL",
    "pop": 2020,
    "lat": 31.99098,
    "lon": -87.29055
  },
  {
    "city": "Camp Hill",
    "state": "AL",
    "pop": 1014,
    "lat": 32.80041,
    "lon": -85.65357
  },
  {
    "city": "Carbon Hill",
    "state": "AL",
    "pop": 2021,
    "lat": 33.89177,
    "lon": -87.52612
  },
  {
    "city": "Carrollton",
    "state": "AL",
    "pop": 1019,
    "lat": 33.26179,
    "lon": -88.09503
  },
  {
    "city": "Cedar Bluff",
    "state": "AL",
    "pop": 1820,
    "lat": 34.22009,
    "lon": -85.60774
  },
  {
    "city": "Center Point",
    "state": "AL",
    "pop": 16921,
    "lat": 33.64566,
    "lon": -86.6836
  },
  {
    "city": "Centre",
    "state": "AL",
    "pop": 3489,
    "lat": 34.15204,
    "lon": -85.67885
  },
  {
    "city": "Centreville",
    "state": "AL",
    "pop": 2778,
    "lat": 32.9462,
    "lon": -87.11669
  },
  {
    "city": "Chalkville",
    "state": "AL",
    "pop": 3901,
    "lat": 33.65316,
    "lon": -86.64777
  },
  {
    "city": "Chatom",
    "state": "AL",
    "pop": 1288,
    "lat": 31.46517,
    "lon": -88.25446
  },
  {
    "city": "Chelsea",
    "state": "AL",
    "pop": 10183,
    "lat": 33.34011,
    "lon": -86.63026
  },
  {
    "city": "Cherokee",
    "state": "AL",
    "pop": 1048,
    "lat": 34.75703,
    "lon": -87.97281
  },
  {
    "city": "Chickasaw",
    "state": "AL",
    "pop": 6106,
    "lat": 30.7638,
    "lon": -88.07472
  },
  {
    "city": "Childersburg",
    "state": "AL",
    "pop": 5175,
    "lat": 33.27817,
    "lon": -86.35498
  },
  {
    "city": "Choccolocco",
    "state": "AL",
    "pop": 2804,
    "lat": 33.65927,
    "lon": -85.70357
  },
  {
    "city": "Citronelle",
    "state": "AL",
    "pop": 3905,
    "lat": 31.09073,
    "lon": -88.22806
  },
  {
    "city": "Clanton",
    "state": "AL",
    "pop": 8619,
    "lat": 32.83874,
    "lon": -86.62943
  },
  {
    "city": "Clay",
    "state": "AL",
    "pop": 9708,
    "lat": 33.7026,
    "lon": -86.59971
  },
  {
    "city": "Clayton",
    "state": "AL",
    "pop": 3008,
    "lat": 31.87822,
    "lon": -85.44966
  },
  {
    "city": "Cleveland",
    "state": "AL",
    "pop": 1303,
    "lat": 33.99093,
    "lon": -86.57749
  },
  {
    "city": "Clio",
    "state": "AL",
    "pop": 1399,
    "lat": 31.70878,
    "lon": -85.6105
  },
  {
    "city": "Coaling",
    "state": "AL",
    "pop": 1657,
    "lat": 33.15901,
    "lon": -87.34083
  },
  {
    "city": "Collinsville",
    "state": "AL",
    "pop": 1983,
    "lat": 34.26398,
    "lon": -85.86053
  },
  {
    "city": "Columbiana",
    "state": "AL",
    "pop": 4197,
    "lat": 33.17817,
    "lon": -86.60721
  },
  {
    "city": "Concord",
    "state": "AL",
    "pop": 1837,
    "lat": 33.46761,
    "lon": -87.03111
  },
  {
    "city": "Coosada",
    "state": "AL",
    "pop": 1224,
    "lat": 32.49791,
    "lon": -86.33136
  },
  {
    "city": "Cordova",
    "state": "AL",
    "pop": 2095,
    "lat": 33.75983,
    "lon": -87.18333
  },
  {
    "city": "Cottonwood",
    "state": "AL",
    "pop": 1289,
    "lat": 31.04879,
    "lon": -85.30493
  },
  {
    "city": "Cowarts",
    "state": "AL",
    "pop": 1871,
    "lat": 31.20018,
    "lon": -85.30465
  },
  {
    "city": "Creola",
    "state": "AL",
    "pop": 1926,
    "lat": 30.89185,
    "lon": -88.03972
  },
  {
    "city": "Crossville",
    "state": "AL",
    "pop": 1862,
    "lat": 34.28759,
    "lon": -85.99414
  },
  {
    "city": "Cullman",
    "state": "AL",
    "pop": 14775,
    "lat": 34.17482,
    "lon": -86.84361
  },
  {
    "city": "Dadeville",
    "state": "AL",
    "pop": 3230,
    "lat": 32.83124,
    "lon": -85.76357
  },
  {
    "city": "Daleville",
    "state": "AL",
    "pop": 5295,
    "lat": 31.31017,
    "lon": -85.71299
  },
  {
    "city": "Danville",
    "state": "AL",
    "pop": 6242,
    "lat": 34.41454,
    "lon": -87.08751
  },
  {
    "city": "Daphne",
    "state": "AL",
    "pop": 21570,
    "lat": 30.60353,
    "lon": -87.9036
  },
  {
    "city": "Dauphin Island",
    "state": "AL",
    "pop": 1238,
    "lat": 30.25548,
    "lon": -88.10972
  },
  {
    "city": "Deatsville",
    "state": "AL",
    "pop": 1154,
    "lat": 32.60819,
    "lon": -86.39581
  },
  {
    "city": "Decatur",
    "state": "AL",
    "pop": 55683,
    "lat": 34.60593,
    "lon": -86.98334
  },
  {
    "city": "Demopolis",
    "state": "AL",
    "pop": 7483,
    "lat": 32.51764,
    "lon": -87.8364
  },
  {
    "city": "Dora",
    "state": "AL",
    "pop": 2025,
    "lat": 33.72872,
    "lon": -87.09028
  },
  {
    "city": "Dothan",
    "state": "AL",
    "pop": 65496,
    "lat": 31.22323,
    "lon": -85.39049
  },
  {
    "city": "Double Springs",
    "state": "AL",
    "pop": 1083,
    "lat": 34.14649,
    "lon": -87.40224
  },
  {
    "city": "East Brewton",
    "state": "AL",
    "pop": 2478,
    "lat": 31.09323,
    "lon": -87.06275
  },
  {
    "city": "East Florence",
    "state": "AL",
    "pop": 35733,
    "lat": 34.80953,
    "lon": -87.64947
  },
  {
    "city": "Eclectic",
    "state": "AL",
    "pop": 1001,
    "lat": 32.63541,
    "lon": -86.03441
  },
  {
    "city": "Elberta",
    "state": "AL",
    "pop": 1498,
    "lat": 30.41436,
    "lon": -87.59776
  },
  {
    "city": "Enterprise",
    "state": "AL",
    "pop": 26562,
    "lat": 31.31517,
    "lon": -85.85522
  },
  {
    "city": "Eufaula",
    "state": "AL",
    "pop": 13137,
    "lat": 31.89127,
    "lon": -85.14549
  },
  {
    "city": "Eutaw",
    "state": "AL",
    "pop": 2934,
    "lat": 32.84068,
    "lon": -87.88751
  },
  {
    "city": "Evergreen",
    "state": "AL",
    "pop": 3944,
    "lat": 31.4335,
    "lon": -86.95692
  },
  {
    "city": "Fairfield",
    "state": "AL",
    "pop": 11117,
    "lat": 33.48594,
    "lon": -86.91194
  },
  {
    "city": "Fairhope",
    "state": "AL",
    "pop": 15326,
    "lat": 30.52297,
    "lon": -87.90333
  },
  {
    "city": "Falkville",
    "state": "AL",
    "pop": 1279,
    "lat": 34.36843,
    "lon": -86.90862
  },
  {
    "city": "Fayette",
    "state": "AL",
    "pop": 4619,
    "lat": 33.68455,
    "lon": -87.83085
  },
  {
    "city": "Fayetteville",
    "state": "AL",
    "pop": 1284,
    "lat": 33.14567,
    "lon": -86.40581
  },
  {
    "city": "Flint City",
    "state": "AL",
    "pop": 1033,
    "lat": 34.52315,
    "lon": -86.97029
  },
  {
    "city": "Florala",
    "state": "AL",
    "pop": 1980,
    "lat": 31.00518,
    "lon": -86.328
  },
  {
    "city": "Florence",
    "state": "AL",
    "pop": 39319,
    "lat": 34.79981,
    "lon": -87.67725
  },
  {
    "city": "Flomaton",
    "state": "AL",
    "pop": 1440,
    "lat": 31.00018,
    "lon": -87.26081
  },
  {
    "city": "Foley",
    "state": "AL",
    "pop": 14618,
    "lat": 30.40659,
    "lon": -87.6836
  },
  {
    "city": "Forestdale",
    "state": "AL",
    "pop": 10162,
    "lat": 33.57011,
    "lon": -86.89638
  },
  {
    "city": "Fort Deposit",
    "state": "AL",
    "pop": 1344,
    "lat": 31.98459,
    "lon": -86.57859
  },
  {
    "city": "Fort Payne",
    "state": "AL",
    "pop": 14012,
    "lat": 34.44425,
    "lon": -85.71969
  },
  {
    "city": "Frisco City",
    "state": "AL",
    "pop": 1309,
    "lat": 31.4335,
    "lon": -87.40138
  },
  {
    "city": "Fultondale",
    "state": "AL",
    "pop": 8380,
    "lat": 33.60483,
    "lon": -86.79388
  },
  {
    "city": "Fyffe",
    "state": "AL",
    "pop": 1018,
    "lat": 34.44676,
    "lon": -85.90414
  },
  {
    "city": "Gadsden",
    "state": "AL",
    "pop": 36856,
    "lat": 34.01426,
    "lon": -86.00664
  },
  {
    "city": "Gardendale",
    "state": "AL",
    "pop": 13893,
    "lat": 33.6601,
    "lon": -86.81277
  },
  {
    "city": "Geneva",
    "state": "AL",
    "pop": 4452,
    "lat": 31.03296,
    "lon": -85.86382
  },
  {
    "city": "Georgiana",
    "state": "AL",
    "pop": 1738,
    "lat": 31.6371,
    "lon": -86.74192
  },
  {
    "city": "Glencoe",
    "state": "AL",
    "pop": 5160,
    "lat": 33.95704,
    "lon": -85.93247
  },
  {
    "city": "Good Hope",
    "state": "AL",
    "pop": 2264,
    "lat": 34.11593,
    "lon": -86.86361
  },
  {
    "city": "Goodwater",
    "state": "AL",
    "pop": 1475,
    "lat": 33.06567,
    "lon": -86.0533
  },
  {
    "city": "Gordo",
    "state": "AL",
    "pop": 1750,
    "lat": 33.32012,
    "lon": -87.9028
  },
  {
    "city": "Grand Bay",
    "state": "AL",
    "pop": 3672,
    "lat": 30.47631,
    "lon": -88.34223
  },
  {
    "city": "Grayson Valley",
    "state": "AL",
    "pop": 5736,
    "lat": 33.64816,
    "lon": -86.63943
  },
  {
    "city": "Graysville",
    "state": "AL",
    "pop": 2165,
    "lat": 33.62066,
    "lon": -86.97138
  },
  {
    "city": "Greensboro",
    "state": "AL",
    "pop": 2497,
    "lat": 32.70458,
    "lon": -87.59584
  },
  {
    "city": "Greenville",
    "state": "AL",
    "pop": 8135,
    "lat": 31.8296,
    "lon": -86.61775
  },
  {
    "city": "Grove Hill",
    "state": "AL",
    "pop": 1570,
    "lat": 31.70877,
    "lon": -87.77722
  },
  {
    "city": "Guin",
    "state": "AL",
    "pop": 2376,
    "lat": 33.96566,
    "lon": -87.91475
  },
  {
    "city": "Gulf Shores",
    "state": "AL",
    "pop": 9741,
    "lat": 30.24604,
    "lon": -87.70082
  },
  {
    "city": "Guntersville",
    "state": "AL",
    "pop": 8197,
    "lat": 34.35815,
    "lon": -86.2947
  },
  {
    "city": "Hackleburg",
    "state": "AL",
    "pop": 1516,
    "lat": 34.27732,
    "lon": -87.82864
  },
  {
    "city": "Haleyville",
    "state": "AL",
    "pop": 4173,
    "lat": 34.22649,
    "lon": -87.62141
  },
  {
    "city": "Hamilton",
    "state": "AL",
    "pop": 6885,
    "lat": 34.14232,
    "lon": -87.98864
  },
  {
    "city": "Hanceville",
    "state": "AL",
    "pop": 2982,
    "lat": 34.06065,
    "lon": -86.7675
  },
  {
    "city": "Harpersville",
    "state": "AL",
    "pop": 1637,
    "lat": 33.344,
    "lon": -86.43804
  },
  {
    "city": "Hartford",
    "state": "AL",
    "pop": 2624,
    "lat": 31.1024,
    "lon": -85.69688
  },
  {
    "city": "Hartselle",
    "state": "AL",
    "pop": 14255,
    "lat": 34.44343,
    "lon": -86.93528
  },
  {
    "city": "Harvest",
    "state": "AL",
    "pop": 5281,
    "lat": 34.85564,
    "lon": -86.75083
  },
  {
    "city": "Hayneville",
    "state": "AL",
    "pop": 932,
    "lat": 32.18403,
    "lon": -86.58025
  },
  {
    "city": "Hazel Green",
    "state": "AL",
    "pop": 3630,
    "lat": 34.93231,
    "lon": -86.57194
  },
  {
    "city": "Headland",
    "state": "AL",
    "pop": 4510,
    "lat": 31.35128,
    "lon": -85.34216
  },
  {
    "city": "Heflin",
    "state": "AL",
    "pop": 3480,
    "lat": 33.64899,
    "lon": -85.58746
  },
  {
    "city": "Helena",
    "state": "AL",
    "pop": 16793,
    "lat": 33.29622,
    "lon": -86.8436
  },
  {
    "city": "Henagar",
    "state": "AL",
    "pop": 2344,
    "lat": 34.63508,
    "lon": -85.76719
  },
  {
    "city": "Hokes Bluff",
    "state": "AL",
    "pop": 4286,
    "lat": 33.99815,
    "lon": -85.86636
  },
  {
    "city": "Holt",
    "state": "AL",
    "pop": 3638,
    "lat": 33.23401,
    "lon": -87.48445
  },
  {
    "city": "Holtville",
    "state": "AL",
    "pop": 4096,
    "lat": 32.63624,
    "lon": -86.32664
  },
  {
    "city": "Homewood",
    "state": "AL",
    "pop": 25167,
    "lat": 33.47177,
    "lon": -86.80082
  },
  {
    "city": "Hoover",
    "state": "AL",
    "pop": 81619,
    "lat": 33.40539,
    "lon": -86.81138
  },
  {
    "city": "Hueytown",
    "state": "AL",
    "pop": 16105,
    "lat": 33.45122,
    "lon": -86.99666
  },
  {
    "city": "Huguley",
    "state": "AL",
    "pop": 2540,
    "lat": 32.83457,
    "lon": -85.22966
  },
  {
    "city": "Huntsville",
    "state": "AL",
    "pop": 180105,
    "lat": 34.73037,
    "lon": -86.5861
  },
  {
    "city": "Indian Springs Village",
    "state": "AL",
    "pop": 2363,
    "lat": 33.35539,
    "lon": -86.75443
  },
  {
    "city": "Inverness",
    "state": "AL",
    "pop": 1621,
    "lat": 32.01488,
    "lon": -85.74606
  },
  {
    "city": "Irondale",
    "state": "AL",
    "pop": 12349,
    "lat": 33.53816,
    "lon": -86.70721
  },
  {
    "city": "Jackson",
    "state": "AL",
    "pop": 5228,
    "lat": 31.50905,
    "lon": -87.89444
  },
  {
    "city": "Jacksonville",
    "state": "AL",
    "pop": 12548,
    "lat": 33.81371,
    "lon": -85.76135
  },
  {
    "city": "Jasper",
    "state": "AL",
    "pop": 14352,
    "lat": 33.83122,
    "lon": -87.27751
  },
  {
    "city": "Jemison",
    "state": "AL",
    "pop": 2585,
    "lat": 32.95985,
    "lon": -86.74665
  },
  {
    "city": "Killen",
    "state": "AL",
    "pop": 1108,
    "lat": 34.86286,
    "lon": -87.53753
  },
  {
    "city": "Kimberly",
    "state": "AL",
    "pop": 2711,
    "lat": 33.77344,
    "lon": -86.81388
  },
  {
    "city": "Kinsey",
    "state": "AL",
    "pop": 2198,
    "lat": 31.29906,
    "lon": -85.34438
  },
  {
    "city": "Ladonia",
    "state": "AL",
    "pop": 3142,
    "lat": 32.4682,
    "lon": -85.0791
  },
  {
    "city": "Lafayette",
    "state": "AL",
    "pop": 3003,
    "lat": 32.89985,
    "lon": -85.40106
  },
  {
    "city": "Lake Purdy",
    "state": "AL",
    "pop": 7857,
    "lat": 33.43011,
    "lon": -86.68054
  },
  {
    "city": "Lake View",
    "state": "AL",
    "pop": 1943,
    "lat": 33.28067,
    "lon": -87.1375
  },
  {
    "city": "Lanett",
    "state": "AL",
    "pop": 6468,
    "lat": 32.86874,
    "lon": -85.1905
  },
  {
    "city": "Leeds",
    "state": "AL",
    "pop": 11773,
    "lat": 33.54816,
    "lon": -86.54443
  },
  {
    "city": "Leesburg",
    "state": "AL",
    "pop": 1027,
    "lat": 34.17982,
    "lon": -85.76136
  },
  {
    "city": "Level Plains",
    "state": "AL",
    "pop": 2085,
    "lat": 31.29962,
    "lon": -85.77799
  },
  {
    "city": "Linden",
    "state": "AL",
    "pop": 2123,
    "lat": 32.30625,
    "lon": -87.79807
  },
  {
    "city": "Lincoln",
    "state": "AL",
    "pop": 6266,
    "lat": 33.61316,
    "lon": -86.11831
  },
  {
    "city": "Lineville",
    "state": "AL",
    "pop": 2395,
    "lat": 33.31067,
    "lon": -85.75441
  },
  {
    "city": "Lipscomb",
    "state": "AL",
    "pop": 2210,
    "lat": 33.42566,
    "lon": -86.92666
  },
  {
    "city": "Littleville",
    "state": "AL",
    "pop": 1011,
    "lat": 34.59065,
    "lon": -87.67697
  },
  {
    "city": "Livingston",
    "state": "AL",
    "pop": 3485,
    "lat": 32.5843,
    "lon": -88.18725
  },
  {
    "city": "Locust Fork",
    "state": "AL",
    "pop": 1186,
    "lat": 33.9076,
    "lon": -86.61527
  },
  {
    "city": "Loxley",
    "state": "AL",
    "pop": 1632,
    "lat": 30.61825,
    "lon": -87.75305
  },
  {
    "city": "Luverne",
    "state": "AL",
    "pop": 2800,
    "lat": 31.71655,
    "lon": -86.26385
  },
  {
    "city": "Madison",
    "state": "AL",
    "pop": 42938,
    "lat": 34.69926,
    "lon": -86.74833
  },
  {
    "city": "Malvern",
    "state": "AL",
    "pop": 1448,
    "lat": 31.13934,
    "lon": -85.5191
  },
  {
    "city": "Marbury",
    "state": "AL",
    "pop": 1418,
    "lat": 32.70124,
    "lon": -86.47109
  },
  {
    "city": "Margaret",
    "state": "AL",
    "pop": 4428,
    "lat": 33.68621,
    "lon": -86.47498
  },
  {
    "city": "Marion",
    "state": "AL",
    "pop": 3686,
    "lat": 32.63235,
    "lon": -87.31917
  },
  {
    "city": "Meadowbrook",
    "state": "AL",
    "pop": 8769,
    "lat": 33.40205,
    "lon": -86.69665
  },
  {
    "city": "Meridianville",
    "state": "AL",
    "pop": 6021,
    "lat": 34.85148,
    "lon": -86.57222
  },
  {
    "city": "Midfield",
    "state": "AL",
    "pop": 5365,
    "lat": 33.4615,
    "lon": -86.90888
  },
  {
    "city": "Midland City",
    "state": "AL",
    "pop": 2344,
    "lat": 31.31906,
    "lon": -85.49382
  },
  {
    "city": "Mignon",
    "state": "AL",
    "pop": 1284,
    "lat": 33.18345,
    "lon": -86.26109
  },
  {
    "city": "Millbrook",
    "state": "AL",
    "pop": 14640,
    "lat": 32.47986,
    "lon": -86.36192
  },
  {
    "city": "Millport",
    "state": "AL",
    "pop": 1049,
    "lat": 33.56345,
    "lon": -88.08142
  },
  {
    "city": "Minor",
    "state": "AL",
    "pop": 1094,
    "lat": 33.53733,
    "lon": -86.94055
  },
  {
    "city": "Mobile",
    "state": "AL",
    "pop": 195111,
    "lat": 30.69436,
    "lon": -88.04305
  },
  {
    "city": "Monroeville",
    "state": "AL",
    "pop": 6519,
    "lat": 31.52794,
    "lon": -87.32471
  },
  {
    "city": "Montevallo",
    "state": "AL",
    "pop": 6323,
    "lat": 33.10067,
    "lon": -86.86416
  },
  {
    "city": "Montgomery",
    "state": "AL",
    "pop": 205764,
    "lat": 32.36681,
    "lon": -86.29997
  },
  {
    "city": "Moody",
    "state": "AL",
    "pop": 11726,
    "lat": 33.59094,
    "lon": -86.49082
  },
  {
    "city": "Moores Mill",
    "state": "AL",
    "pop": 5682,
    "lat": 34.84398,
    "lon": -86.51832
  },
  {
    "city": "Morris",
    "state": "AL",
    "pop": 1859,
    "lat": 33.74816,
    "lon": -86.8086
  },
  {
    "city": "Mosses",
    "state": "AL",
    "pop": 1029,
    "lat": 32.17459,
    "lon": -86.67192
  },
  {
    "city": "Moulton",
    "state": "AL",
    "pop": 3471,
    "lat": 34.48121,
    "lon": -87.29335
  },
  {
    "city": "Moundville",
    "state": "AL",
    "pop": 2427,
    "lat": 32.99762,
    "lon": -87.63001
  },
  {
    "city": "Mount Olive",
    "state": "AL",
    "pop": 4079,
    "lat": 33.67094,
    "lon": -86.8561
  },
  {
    "city": "Mount Vernon",
    "state": "AL",
    "pop": 1574,
    "lat": 31.08518,
    "lon": -88.01333
  },
  {
    "city": "Mountain Brook",
    "state": "AL",
    "pop": 20413,
    "lat": 33.50094,
    "lon": -86.75221
  },
  {
    "city": "Munford",
    "state": "AL",
    "pop": 1292,
    "lat": 33.52983,
    "lon": -85.9508
  },
  {
    "city": "Muscle Shoals",
    "state": "AL",
    "pop": 13146,
    "lat": 34.74481,
    "lon": -87.66753
  },
  {
    "city": "New Brockton",
    "state": "AL",
    "pop": 1146,
    "lat": 31.38572,
    "lon": -85.92939
  },
  {
    "city": "New Hope",
    "state": "AL",
    "pop": 2810,
    "lat": 34.53703,
    "lon": -86.39443
  },
  {
    "city": "New Market",
    "state": "AL",
    "pop": 1597,
    "lat": 34.91009,
    "lon": -86.42777
  },
  {
    "city": "Newton",
    "state": "AL",
    "pop": 1511,
    "lat": 31.33517,
    "lon": -85.60521
  },
  {
    "city": "North Bibb",
    "state": "AL",
    "pop": 1013,
    "lat": 33.20401,
    "lon": -87.15305
  },
  {
    "city": "Northport",
    "state": "AL",
    "pop": 23330,
    "lat": 33.22901,
    "lon": -87.57723
  },
  {
    "city": "Odenville",
    "state": "AL",
    "pop": 3585,
    "lat": 33.67732,
    "lon": -86.39665
  },
  {
    "city": "Ohatchee",
    "state": "AL",
    "pop": 1170,
    "lat": 33.78343,
    "lon": -86.00247
  },
  {
    "city": "Opelika",
    "state": "AL",
    "pop": 26477,
    "lat": 32.64541,
    "lon": -85.37828
  },
  {
    "city": "Oneonta",
    "state": "AL",
    "pop": 6567,
    "lat": 33.94815,
    "lon": -86.47276
  },
  {
    "city": "Opp",
    "state": "AL",
    "pop": 6659,
    "lat": 31.28267,
    "lon": -86.25551
  },
  {
    "city": "Orange Beach",
    "state": "AL",
    "pop": 5441,
    "lat": 30.29437,
    "lon": -87.57359
  },
  {
    "city": "Owens Cross Roads",
    "state": "AL",
    "pop": 1521,
    "lat": 34.58815,
    "lon": -86.45888
  },
  {
    "city": "Oxford",
    "state": "AL",
    "pop": 21348,
    "lat": 33.61427,
    "lon": -85.83496
  },
  {
    "city": "Ozark",
    "state": "AL",
    "pop": 14907,
    "lat": 31.45906,
    "lon": -85.64049
  },
  {
    "city": "Pelham",
    "state": "AL",
    "pop": 21352,
    "lat": 33.28567,
    "lon": -86.80999
  },
  {
    "city": "Pell City",
    "state": "AL",
    "pop": 12695,
    "lat": 33.58621,
    "lon": -86.28609
  },
  {
    "city": "Phenix City",
    "state": "AL",
    "pop": 32822,
    "lat": 32.47098,
    "lon": -85.00077
  },
  {
    "city": "Phil Campbell",
    "state": "AL",
    "pop": 1148,
    "lat": 34.35093,
    "lon": -87.70642
  },
  {
    "city": "Piedmont",
    "state": "AL",
    "pop": 4878,
    "lat": 33.92455,
    "lon": -85.61135
  },
  {
    "city": "Pike Road",
    "state": "AL",
    "pop": 5406,
    "lat": 32.28431,
    "lon": -86.10302
  },
  {
    "city": "Pine Level",
    "state": "AL",
    "pop": 4183,
    "lat": 32.58374,
    "lon": -86.46553
  },
  {
    "city": "Pinson",
    "state": "AL",
    "pop": 7163,
    "lat": 33.68899,
    "lon": -86.68332
  },
  {
    "city": "Pleasant Grove",
    "state": "AL",
    "pop": 10110,
    "lat": 33.49094,
    "lon": -86.97027
  },
  {
    "city": "Point Clear",
    "state": "AL",
    "pop": 2125,
    "lat": 30.47408,
    "lon": -87.91916
  },
  {
    "city": "Prattville",
    "state": "AL",
    "pop": 33960,
    "lat": 32.46402,
    "lon": -86.4597
  },
  {
    "city": "Priceville",
    "state": "AL",
    "pop": 2658,
    "lat": 34.52509,
    "lon": -86.89473
  },
  {
    "city": "Prichard",
    "state": "AL",
    "pop": 22659,
    "lat": 30.7388,
    "lon": -88.07889
  },
  {
    "city": "Ragland",
    "state": "AL",
    "pop": 1639,
    "lat": 33.74454,
    "lon": -86.15581
  },
  {
    "city": "Rainbow City",
    "state": "AL",
    "pop": 9602,
    "lat": 33.95482,
    "lon": -86.04192
  },
  {
    "city": "Rainsville",
    "state": "AL",
    "pop": 4948,
    "lat": 34.49425,
    "lon": -85.84775
  },
  {
    "city": "Red Bay",
    "state": "AL",
    "pop": 3158,
    "lat": 34.43982,
    "lon": -88.14087
  },
  {
    "city": "Reform",
    "state": "AL",
    "pop": 1702,
    "lat": 33.37845,
    "lon": -88.0153
  },
  {
    "city": "Rehobeth",
    "state": "AL",
    "pop": 1297,
    "lat": 31.12296,
    "lon": -85.45271
  },
  {
    "city": "Riverside",
    "state": "AL",
    "pop": 2208,
    "lat": 33.60621,
    "lon": -86.20442
  },
  {
    "city": "Roanoke",
    "state": "AL",
    "pop": 6074,
    "lat": 33.15123,
    "lon": -85.37217
  },
  {
    "city": "Robertsdale",
    "state": "AL",
    "pop": 5276,
    "lat": 30.5538,
    "lon": -87.71193
  },
  {
    "city": "Rock Creek",
    "state": "AL",
    "pop": 1456,
    "lat": 33.47705,
    "lon": -87.08027
  },
  {
    "city": "Rockford",
    "state": "AL",
    "pop": 477,
    "lat": 32.88957,
    "lon": -86.21969
  },
  {
    "city": "Rogersville",
    "state": "AL",
    "pop": 1257,
    "lat": 34.82578,
    "lon": -87.29676
  },
  {
    "city": "Russellville",
    "state": "AL",
    "pop": 9830,
    "lat": 34.50787,
    "lon": -87.72864
  },
  {
    "city": "Saks",
    "state": "AL",
    "pop": 10744,
    "lat": 33.69871,
    "lon": -85.83969
  },
  {
    "city": "Samson",
    "state": "AL",
    "pop": 1940,
    "lat": 31.11295,
    "lon": -86.04605
  },
  {
    "city": "Saraland",
    "state": "AL",
    "pop": 13405,
    "lat": 30.82074,
    "lon": -88.07056
  },
  {
    "city": "Sardis City",
    "state": "AL",
    "pop": 1704,
    "lat": 34.17426,
    "lon": -86.12275
  },
  {
    "city": "Satsuma",
    "state": "AL",
    "pop": 6168,
    "lat": 30.85324,
    "lon": -88.05611
  },
  {
    "city": "Scottsboro",
    "state": "AL",
    "pop": 14770,
    "lat": 34.67231,
    "lon": -86.03415
  },
  {
    "city": "Selma",
    "state": "AL",
    "pop": 20756,
    "lat": 32.40736,
    "lon": -87.0211
  },
  {
    "city": "Sheffield",
    "state": "AL",
    "pop": 9039,
    "lat": 34.76509,
    "lon": -87.69864
  },
  {
    "city": "Shelby",
    "state": "AL",
    "pop": 1044,
    "lat": 33.1104,
    "lon": -86.58415
  },
  {
    "city": "Slocomb",
    "state": "AL",
    "pop": 1980,
    "lat": 31.10823,
    "lon": -85.59438
  },
  {
    "city": "Smiths Station",
    "state": "AL",
    "pop": 4926,
    "lat": 32.54014,
    "lon": -85.09855
  },
  {
    "city": "Smoke Rise",
    "state": "AL",
    "pop": 1825,
    "lat": 33.89177,
    "lon": -86.82027
  },
  {
    "city": "Southside",
    "state": "AL",
    "pop": 8412,
    "lat": 33.92454,
    "lon": -86.02247
  },
  {
    "city": "Spanish Fort",
    "state": "AL",
    "pop": 6798,
    "lat": 30.67491,
    "lon": -87.91527
  },
  {
    "city": "Springville",
    "state": "AL",
    "pop": 4080,
    "lat": 33.7751,
    "lon": -86.47165
  },
  {
    "city": "Steele",
    "state": "AL",
    "pop": 1043,
    "lat": 33.93982,
    "lon": -86.20164
  },
  {
    "city": "Stevenson",
    "state": "AL",
    "pop": 2046,
    "lat": 34.86869,
    "lon": -85.83942
  },
  {
    "city": "Stewartville",
    "state": "AL",
    "pop": 1767,
    "lat": 33.07929,
    "lon": -86.24442
  },
  {
    "city": "Sulligent",
    "state": "AL",
    "pop": 1927,
    "lat": 33.90177,
    "lon": -88.13448
  },
  {
    "city": "Sumiton",
    "state": "AL",
    "pop": 2520,
    "lat": 33.75566,
    "lon": -87.05
  },
  {
    "city": "Sylacauga",
    "state": "AL",
    "pop": 12749,
    "lat": 33.17317,
    "lon": -86.25164
  },
  {
    "city": "Sylvan Springs",
    "state": "AL",
    "pop": 1542,
    "lat": 33.51566,
    "lon": -87.01499
  },
  {
    "city": "Sylvania",
    "state": "AL",
    "pop": 1837,
    "lat": 34.56231,
    "lon": -85.81247
  },
  {
    "city": "Talladega",
    "state": "AL",
    "pop": 15676,
    "lat": 33.43594,
    "lon": -86.1058
  },
  {
    "city": "Tallassee",
    "state": "AL",
    "pop": 4819,
    "lat": 32.53597,
    "lon": -85.89329
  },
  {
    "city": "Tarrant",
    "state": "AL",
    "pop": 6397,
    "lat": 33.58344,
    "lon": -86.77277
  },
  {
    "city": "Taylor",
    "state": "AL",
    "pop": 2375,
    "lat": 31.1649,
    "lon": -85.46827
  },
  {
    "city": "Taylor",
    "state": "AL",
    "pop": 1946,
    "lat": 31.97543,
    "lon": -86.2333
  },
  {
    "city": "Theodore",
    "state": "AL",
    "pop": 6130,
    "lat": 30.54769,
    "lon": -88.17528
  },
  {
    "city": "Thomasville",
    "state": "AL",
    "pop": 4209,
    "lat": 31.91349,
    "lon": -87.73584
  },
  {
    "city": "Thorsby",
    "state": "AL",
    "pop": 1980,
    "lat": 32.91568,
    "lon": -86.71582
  },
  {
    "city": "Tillmans Corner",
    "state": "AL",
    "pop": 17398,
    "lat": 30.59019,
    "lon": -88.17084
  },
  {
    "city": "Town Creek",
    "state": "AL",
    "pop": 1100,
    "lat": 34.6812,
    "lon": -87.40613
  },
  {
    "city": "Trinity",
    "state": "AL",
    "pop": 2095,
    "lat": 34.60676,
    "lon": -87.08835
  },
  {
    "city": "Troy",
    "state": "AL",
    "pop": 18033,
    "lat": 31.80877,
    "lon": -85.96995
  },
  {
    "city": "Trussville",
    "state": "AL",
    "pop": 19933,
    "lat": 33.61983,
    "lon": -86.60888
  },
  {
    "city": "Tuscaloosa",
    "state": "AL",
    "pop": 90468,
    "lat": 33.20984,
    "lon": -87.56917
  },
  {
    "city": "Tuscumbia",
    "state": "AL",
    "pop": 8423,
    "lat": 34.7312,
    "lon": -87.70253
  },
  {
    "city": "Tuskegee",
    "state": "AL",
    "pop": 9865,
    "lat": 32.42403,
    "lon": -85.69162
  },
  {
    "city": "Union Springs",
    "state": "AL",
    "pop": 3980,
    "lat": 32.14432,
    "lon": -85.71495
  },
  {
    "city": "Uniontown",
    "state": "AL",
    "pop": 1775,
    "lat": 32.44958,
    "lon": -87.51417
  },
  {
    "city": "Valley",
    "state": "AL",
    "pop": 9524,
    "lat": 32.81874,
    "lon": -85.17939
  },
  {
    "city": "Valley Grande",
    "state": "AL",
    "pop": 4020,
    "lat": 32.50902,
    "lon": -86.98749
  },
  {
    "city": "Vandiver",
    "state": "AL",
    "pop": 1135,
    "lat": 33.47066,
    "lon": -86.51332
  },
  {
    "city": "Vance",
    "state": "AL",
    "pop": 1529,
    "lat": 33.17428,
    "lon": -87.23361
  },
  {
    "city": "Vernon",
    "state": "AL",
    "pop": 2000,
    "lat": 33.75705,
    "lon": -88.10892
  },
  {
    "city": "Vestavia Hills",
    "state": "AL",
    "pop": 34033,
    "lat": 33.44872,
    "lon": -86.78777
  },
  {
    "city": "Vincent",
    "state": "AL",
    "pop": 1988,
    "lat": 33.38455,
    "lon": -86.41192
  },
  {
    "city": "Warrior",
    "state": "AL",
    "pop": 3176,
    "lat": 33.81427,
    "lon": -86.80944
  },
  {
    "city": "Weaver",
    "state": "AL",
    "pop": 3038,
    "lat": 33.75205,
    "lon": -85.81135
  },
  {
    "city": "Webb",
    "state": "AL",
    "pop": 1430,
    "lat": 31.26045,
    "lon": -85.27327
  },
  {
    "city": "Wedowee",
    "state": "AL",
    "pop": 823,
    "lat": 33.309,
    "lon": -85.48467
  },
  {
    "city": "West Blocton",
    "state": "AL",
    "pop": 1240,
    "lat": 33.11817,
    "lon": -87.125
  },
  {
    "city": "Westover",
    "state": "AL",
    "pop": 1275,
    "lat": 33.34955,
    "lon": -86.53582
  },
  {
    "city": "Wetumpka",
    "state": "AL",
    "pop": 6528,
    "lat": 32.54374,
    "lon": -86.21191
  },
  {
    "city": "Whitesboro",
    "state": "AL",
    "pop": 2138,
    "lat": 34.16343,
    "lon": -86.06942
  },
  {
    "city": "Wilsonville",
    "state": "AL",
    "pop": 1827,
    "lat": 33.23428,
    "lon": -86.48359
  },
  {
    "city": "Winfield",
    "state": "AL",
    "pop": 4717,
    "lat": 33.92899,
    "lon": -87.81725
  },
  {
    "city": "Woodstock",
    "state": "AL",
    "pop": 1428,
    "lat": 33.20678,
    "lon": -87.15
  },
  {
    "city": "York",
    "state": "AL",
    "pop": 2538,
    "lat": 32.48625,
    "lon": -88.29642
  },
  {
    "city": "Alexander",
    "state": "AR",
    "pop": 2901,
    "lat": 34.62954,
    "lon": -92.44127
  },
  {
    "city": "Alma",
    "state": "AR",
    "pop": 5419,
    "lat": 35.47787,
    "lon": -94.22188
  },
  {
    "city": "Arkadelphia",
    "state": "AR",
    "pop": 10714,
    "lat": 34.12093,
    "lon": -93.05378
  },
  {
    "city": "Arkansas City",
    "state": "AR",
    "pop": 366,
    "lat": 33.60872,
    "lon": -91.20678
  },
  {
    "city": "Ash Flat",
    "state": "AR",
    "pop": 1082,
    "lat": 36.22396,
    "lon": -91.60848
  },
  {
    "city": "Ashdown",
    "state": "AR",
    "pop": 4723,
    "lat": 33.67429,
    "lon": -94.13131
  },
  {
    "city": "Atkins",
    "state": "AR",
    "pop": 3016,
    "lat": 35.24647,
    "lon": -92.93656
  },
  {
    "city": "Augusta",
    "state": "AR",
    "pop": 2199,
    "lat": 35.28231,
    "lon": -91.36541
  },
  {
    "city": "Austin",
    "state": "AR",
    "pop": 2038,
    "lat": 34.99842,
    "lon": -91.98376
  },
  {
    "city": "Bald Knob",
    "state": "AR",
    "pop": 2897,
    "lat": 35.30981,
    "lon": -91.56791
  },
  {
    "city": "Barling",
    "state": "AR",
    "pop": 4649,
    "lat": 35.32565,
    "lon": -94.3016
  },
  {
    "city": "Batesville",
    "state": "AR",
    "pop": 10248,
    "lat": 35.7698,
    "lon": -91.64097
  },
  {
    "city": "Bay",
    "state": "AR",
    "pop": 1801,
    "lat": 35.7423,
    "lon": -90.56233
  },
  {
    "city": "Beebe",
    "state": "AR",
    "pop": 7315,
    "lat": 35.07064,
    "lon": -91.87959
  },
  {
    "city": "Bella Vista",
    "state": "AR",
    "pop": 26461,
    "lat": 36.4807,
    "lon": -94.27134
  },
  {
    "city": "Benton",
    "state": "AR",
    "pop": 30681,
    "lat": 34.56454,
    "lon": -92.58683
  },
  {
    "city": "Bentonville",
    "state": "AR",
    "pop": 35301,
    "lat": 36.37285,
    "lon": -94.20882
  },
  {
    "city": "Berryville",
    "state": "AR",
    "pop": 5356,
    "lat": 36.36479,
    "lon": -93.56797
  },
  {
    "city": "Bethel Heights",
    "state": "AR",
    "pop": 2372,
    "lat": 36.21424,
    "lon": -94.12937
  },
  {
    "city": "Blytheville",
    "state": "AR",
    "pop": 15620,
    "lat": 35.9273,
    "lon": -89.91898
  },
  {
    "city": "Bono",
    "state": "AR",
    "pop": 2131,
    "lat": 35.90868,
    "lon": -90.80262
  },
  {
    "city": "Booneville",
    "state": "AR",
    "pop": 3990,
    "lat": 35.14009,
    "lon": -93.92159
  },
  {
    "city": "Brinkley",
    "state": "AR",
    "pop": 3188,
    "lat": 34.88787,
    "lon": -91.19457
  },
  {
    "city": "Brookland",
    "state": "AR",
    "pop": 1642,
    "lat": 35.90007,
    "lon": -90.58205
  },
  {
    "city": "Bryant",
    "state": "AR",
    "pop": 16688,
    "lat": 34.59593,
    "lon": -92.48905
  },
  {
    "city": "Bull Shoals",
    "state": "AR",
    "pop": 1950,
    "lat": 36.38396,
    "lon": -92.58155
  },
  {
    "city": "Cabot",
    "state": "AR",
    "pop": 23776,
    "lat": 34.97453,
    "lon": -92.01653
  },
  {
    "city": "Calico Rock",
    "state": "AR",
    "pop": 1545,
    "lat": 36.11951,
    "lon": -92.13599
  },
  {
    "city": "Camden",
    "state": "AR",
    "pop": 12183,
    "lat": 33.58456,
    "lon": -92.83433
  },
  {
    "city": "Caraway",
    "state": "AR",
    "pop": 1279,
    "lat": 35.75813,
    "lon": -90.32232
  },
  {
    "city": "Carlisle",
    "state": "AR",
    "pop": 2214,
    "lat": 34.78315,
    "lon": -91.74652
  },
  {
    "city": "Cave City",
    "state": "AR",
    "pop": 1904,
    "lat": 35.94174,
    "lon": -91.54847
  },
  {
    "city": "Cave Springs",
    "state": "AR",
    "pop": 1729,
    "lat": 36.26341,
    "lon": -94.23187
  },
  {
    "city": "Cedarville",
    "state": "AR",
    "pop": 1394,
    "lat": 35.56981,
    "lon": -94.36688
  },
  {
    "city": "Centerton",
    "state": "AR",
    "pop": 9515,
    "lat": 36.3598,
    "lon": -94.28521
  },
  {
    "city": "Charleston",
    "state": "AR",
    "pop": 2494,
    "lat": 35.29704,
    "lon": -94.03632
  },
  {
    "city": "Cherokee Village",
    "state": "AR",
    "pop": 4671,
    "lat": 36.29784,
    "lon": -91.51597
  },
  {
    "city": "Clarendon",
    "state": "AR",
    "pop": 1664,
    "lat": 34.69315,
    "lon": -91.31374
  },
  {
    "city": "Clarksville",
    "state": "AR",
    "pop": 9178,
    "lat": 35.47147,
    "lon": -93.46657
  },
  {
    "city": "Clinton",
    "state": "AR",
    "pop": 2602,
    "lat": 35.59147,
    "lon": -92.46044
  },
  {
    "city": "Coal Hill",
    "state": "AR",
    "pop": 1012,
    "lat": 35.43731,
    "lon": -93.67297
  },
  {
    "city": "Conway",
    "state": "AR",
    "pop": 58908,
    "lat": 35.0887,
    "lon": -92.4421
  },
  {
    "city": "Corning",
    "state": "AR",
    "pop": 3377,
    "lat": 36.40784,
    "lon": -90.57983
  },
  {
    "city": "Crossett",
    "state": "AR",
    "pop": 5507,
    "lat": 33.12818,
    "lon": -91.96124
  },
  {
    "city": "Danville",
    "state": "AR",
    "pop": 2409,
    "lat": 35.05398,
    "lon": -93.39352
  },
  {
    "city": "Dardanelle",
    "state": "AR",
    "pop": 4745,
    "lat": 35.22314,
    "lon": -93.15795
  },
  {
    "city": "De Queen",
    "state": "AR",
    "pop": 6594,
    "lat": 34.03789,
    "lon": -94.34132
  },
  {
    "city": "De Witt",
    "state": "AR",
    "pop": 3292,
    "lat": 34.29288,
    "lon": -91.3379
  },
  {
    "city": "Decatur",
    "state": "AR",
    "pop": 1699,
    "lat": 36.33591,
    "lon": -94.46077
  },
  {
    "city": "Dermott",
    "state": "AR",
    "pop": 2316,
    "lat": 33.52539,
    "lon": -91.43595
  },
  {
    "city": "Des Arc",
    "state": "AR",
    "pop": 1717,
    "lat": 34.97704,
    "lon": -91.49513
  },
  {
    "city": "Diaz",
    "state": "AR",
    "pop": 1318,
    "lat": 35.63841,
    "lon": -91.26513
  },
  {
    "city": "Dierks",
    "state": "AR",
    "pop": 1133,
    "lat": 34.11928,
    "lon": -94.01658
  },
  {
    "city": "Dover",
    "state": "AR",
    "pop": 1378,
    "lat": 35.40147,
    "lon": -93.11434
  },
  {
    "city": "Dumas",
    "state": "AR",
    "pop": 4706,
    "lat": 33.88705,
    "lon": -91.49179
  },
  {
    "city": "Earle",
    "state": "AR",
    "pop": 2414,
    "lat": 35.27509,
    "lon": -90.46677
  },
  {
    "city": "East End",
    "state": "AR",
    "pop": 6998,
    "lat": 34.55065,
    "lon": -92.34099
  },
  {
    "city": "El Dorado",
    "state": "AR",
    "pop": 18884,
    "lat": 33.20763,
    "lon": -92.66627
  },
  {
    "city": "Elkins",
    "state": "AR",
    "pop": 2648,
    "lat": 36.00147,
    "lon": -94.00825
  },
  {
    "city": "Elm Springs",
    "state": "AR",
    "pop": 1535,
    "lat": 36.20619,
    "lon": -94.23437
  },
  {
    "city": "England",
    "state": "AR",
    "pop": 2825,
    "lat": 34.54426,
    "lon": -91.96903
  },
  {
    "city": "Eudora",
    "state": "AR",
    "pop": 2269,
    "lat": 33.10957,
    "lon": -91.26206
  },
  {
    "city": "Eureka Springs",
    "state": "AR",
    "pop": 2073,
    "lat": 36.40118,
    "lon": -93.73797
  },
  {
    "city": "Fairfield Bay",
    "state": "AR",
    "pop": 2338,
    "lat": 35.59424,
    "lon": -92.27793
  },
  {
    "city": "Farmington",
    "state": "AR",
    "pop": 5974,
    "lat": 36.04202,
    "lon": -94.24715
  },
  {
    "city": "Fayetteville",
    "state": "AR",
    "pop": 73580,
    "lat": 36.06258,
    "lon": -94.15743
  },
  {
    "city": "Flippin",
    "state": "AR",
    "pop": 1355,
    "lat": 36.27896,
    "lon": -92.59711
  },
  {
    "city": "Foreman",
    "state": "AR",
    "pop": 1011,
    "lat": 33.72178,
    "lon": -94.39687
  },
  {
    "city": "Fordyce",
    "state": "AR",
    "pop": 4300,
    "lat": 33.81372,
    "lon": -92.41293
  },
  {
    "city": "Forrest City",
    "state": "AR",
    "pop": 15371,
    "lat": 35.00815,
    "lon": -90.78983
  },
  {
    "city": "Fort Smith",
    "state": "AR",
    "pop": 86209,
    "lat": 35.38592,
    "lon": -94.39855
  },
  {
    "city": "Gassville",
    "state": "AR",
    "pop": 2078,
    "lat": 36.28312,
    "lon": -92.49405
  },
  {
    "city": "Gentry",
    "state": "AR",
    "pop": 3158,
    "lat": 36.26758,
    "lon": -94.48466
  },
  {
    "city": "Gibson",
    "state": "AR",
    "pop": 3543,
    "lat": 34.88426,
    "lon": -92.2357
  },
  {
    "city": "Glenwood",
    "state": "AR",
    "pop": 2228,
    "lat": 34.32677,
    "lon": -93.55074
  },
  {
    "city": "Gosnell",
    "state": "AR",
    "pop": 3548,
    "lat": 35.95979,
    "lon": -89.97203
  },
  {
    "city": "Goshen",
    "state": "AR",
    "pop": 1071,
    "lat": 36.10119,
    "lon": -93.99131
  },
  {
    "city": "Gravel Ridge",
    "state": "AR",
    "pop": 2902,
    "lat": 34.86842,
    "lon": -92.1907
  },
  {
    "city": "Gravette",
    "state": "AR",
    "pop": 2325,
    "lat": 36.42202,
    "lon": -94.45355
  },
  {
    "city": "Green Forest",
    "state": "AR",
    "pop": 2761,
    "lat": 36.33535,
    "lon": -93.43602
  },
  {
    "city": "Greenbrier",
    "state": "AR",
    "pop": 4706,
    "lat": 35.23397,
    "lon": -92.38765
  },
  {
    "city": "Greenland",
    "state": "AR",
    "pop": 1259,
    "lat": 35.99425,
    "lon": -94.1752
  },
  {
    "city": "Greenwood",
    "state": "AR",
    "pop": 8952,
    "lat": 35.21565,
    "lon": -94.25577
  },
  {
    "city": "Gurdon",
    "state": "AR",
    "pop": 2212,
    "lat": 33.92094,
    "lon": -93.15406
  },
  {
    "city": "Hamburg",
    "state": "AR",
    "pop": 2857,
    "lat": 33.22818,
    "lon": -91.79763
  },
  {
    "city": "Hampton",
    "state": "AR",
    "pop": 1324,
    "lat": 33.53789,
    "lon": -92.46988
  },
  {
    "city": "Harrisburg",
    "state": "AR",
    "pop": 2288,
    "lat": 35.56425,
    "lon": -90.71678
  },
  {
    "city": "Harrison",
    "state": "AR",
    "pop": 12943,
    "lat": 36.22979,
    "lon": -93.10768
  },
  {
    "city": "Haskell",
    "state": "AR",
    "pop": 3990,
    "lat": 34.50148,
    "lon": -92.63655
  },
  {
    "city": "Hazen",
    "state": "AR",
    "pop": 1468,
    "lat": 34.78093,
    "lon": -91.58097
  },
  {
    "city": "Heber Springs",
    "state": "AR",
    "pop": 7165,
    "lat": 35.49147,
    "lon": -92.03126
  },
  {
    "city": "Helena",
    "state": "AR",
    "pop": 5548,
    "lat": 34.52955,
    "lon": -90.59177
  },
  {
    "city": "Highland",
    "state": "AR",
    "pop": 1045,
    "lat": 36.2759,
    "lon": -91.52403
  },
  {
    "city": "Holiday Island",
    "state": "AR",
    "pop": 2373,
    "lat": 36.48535,
    "lon": -93.73214
  },
  {
    "city": "Hope",
    "state": "AR",
    "pop": 10095,
    "lat": 33.66706,
    "lon": -93.59157
  },
  {
    "city": "Horatio",
    "state": "AR",
    "pop": 1044,
    "lat": 33.93845,
    "lon": -94.35715
  },
  {
    "city": "Horseshoe Bend",
    "state": "AR",
    "pop": 2184,
    "lat": 36.22923,
    "lon": -91.76431
  },
  {
    "city": "Hot Springs",
    "state": "AR",
    "pop": 35193,
    "lat": 34.5037,
    "lon": -93.05518
  },
  {
    "city": "Hot Springs Village",
    "state": "AR",
    "pop": 12807,
    "lat": 34.67204,
    "lon": -92.99879
  },
  {
    "city": "Hoxie",
    "state": "AR",
    "pop": 2780,
    "lat": 36.05035,
    "lon": -90.97512
  },
  {
    "city": "Hughes",
    "state": "AR",
    "pop": 1441,
    "lat": 34.94926,
    "lon": -90.47149
  },
  {
    "city": "Huntsville",
    "state": "AR",
    "pop": 2346,
    "lat": 36.08619,
    "lon": -93.7413
  },
  {
    "city": "Jacksonville",
    "state": "AR",
    "pop": 28364,
    "lat": 34.8662,
    "lon": -92.11015
  },
  {
    "city": "Jasper",
    "state": "AR",
    "pop": 466,
    "lat": 36.00813,
    "lon": -93.18657
  },
  {
    "city": "Johnson",
    "state": "AR",
    "pop": 3354,
    "lat": 36.13286,
    "lon": -94.16548
  },
  {
    "city": "Jonesboro",
    "state": "AR",
    "pop": 67263,
    "lat": 35.8423,
    "lon": -90.70428
  },
  {
    "city": "Judsonia",
    "state": "AR",
    "pop": 2019,
    "lat": 35.27009,
    "lon": -91.63986
  },
  {
    "city": "Kensett",
    "state": "AR",
    "pop": 1648,
    "lat": 35.23175,
    "lon": -91.66764
  },
  {
    "city": "Lake City",
    "state": "AR",
    "pop": 2082,
    "lat": 35.81619,
    "lon": -90.43427
  },
  {
    "city": "Lake Hamilton",
    "state": "AR",
    "pop": 2135,
    "lat": 34.42453,
    "lon": -93.09518
  },
  {
    "city": "Lake Village",
    "state": "AR",
    "pop": 2575,
    "lat": 33.32873,
    "lon": -91.28178
  },
  {
    "city": "Lamar",
    "state": "AR",
    "pop": 1605,
    "lat": 35.44064,
    "lon": -93.38796
  },
  {
    "city": "Landmark",
    "state": "AR",
    "pop": 3555,
    "lat": 34.6112,
    "lon": -92.3196
  },
  {
    "city": "Lavaca",
    "state": "AR",
    "pop": 2289,
    "lat": 35.3362,
    "lon": -94.17326
  },
  {
    "city": "Leachville",
    "state": "AR",
    "pop": 1993,
    "lat": 35.93591,
    "lon": -90.25788
  },
  {
    "city": "Lepanto",
    "state": "AR",
    "pop": 1893,
    "lat": 35.61119,
    "lon": -90.32982
  },
  {
    "city": "Lewisville",
    "state": "AR",
    "pop": 1280,
    "lat": 33.35846,
    "lon": -93.57768
  },
  {
    "city": "Lincoln",
    "state": "AR",
    "pop": 2249,
    "lat": 35.94953,
    "lon": -94.42355
  },
  {
    "city": "Little Flock",
    "state": "AR",
    "pop": 2585,
    "lat": 36.38591,
    "lon": -94.1352
  },
  {
    "city": "Little Rock",
    "state": "AR",
    "pop": 193524,
    "lat": 34.74648,
    "lon": -92.28959
  },
  {
    "city": "London",
    "state": "AR",
    "pop": 1039,
    "lat": 35.32897,
    "lon": -93.25296
  },
  {
    "city": "Lonoke",
    "state": "AR",
    "pop": 4245,
    "lat": 34.78398,
    "lon": -91.89986
  },
  {
    "city": "Lowell",
    "state": "AR",
    "pop": 7327,
    "lat": 36.25535,
    "lon": -94.13076
  },
  {
    "city": "Luxora",
    "state": "AR",
    "pop": 1178,
    "lat": 35.75619,
    "lon": -89.92814
  },
  {
    "city": "Magnolia",
    "state": "AR",
    "pop": 11577,
    "lat": 33.26707,
    "lon": -93.23933
  },
  {
    "city": "Malvern",
    "state": "AR",
    "pop": 10318,
    "lat": 34.36231,
    "lon": -92.81295
  },
  {
    "city": "Manila",
    "state": "AR",
    "pop": 3342,
    "lat": 35.88007,
    "lon": -90.16704
  },
  {
    "city": "Mansfield",
    "state": "AR",
    "pop": 1139,
    "lat": 35.05954,
    "lon": -94.25271
  },
  {
    "city": "Marianna",
    "state": "AR",
    "pop": 4115,
    "lat": 34.77371,
    "lon": -90.75761
  },
  {
    "city": "Marion",
    "state": "AR",
    "pop": 12345,
    "lat": 35.21453,
    "lon": -90.19648
  },
  {
    "city": "Marked Tree",
    "state": "AR",
    "pop": 2566,
    "lat": 35.53286,
    "lon": -90.42066
  },
  {
    "city": "Marmaduke",
    "state": "AR",
    "pop": 1111,
    "lat": 36.18701,
    "lon": -90.38316
  },
  {
    "city": "Marshall",
    "state": "AR",
    "pop": 1355,
    "lat": 35.90896,
    "lon": -92.63127
  },
  {
    "city": "Marvell",
    "state": "AR",
    "pop": 1186,
    "lat": 34.55566,
    "lon": -90.91289
  },
  {
    "city": "Maumelle",
    "state": "AR",
    "pop": 17163,
    "lat": 34.86676,
    "lon": -92.40432
  },
  {
    "city": "Mayflower",
    "state": "AR",
    "pop": 2234,
    "lat": 34.95703,
    "lon": -92.42738
  },
  {
    "city": "McAlmont",
    "state": "AR",
    "pop": 1873,
    "lat": 34.80842,
    "lon": -92.18181
  },
  {
    "city": "McCrory",
    "state": "AR",
    "pop": 1729,
    "lat": 35.2562,
    "lon": -91.20012
  },
  {
    "city": "McGehee",
    "state": "AR",
    "pop": 4219,
    "lat": 33.629,
    "lon": -91.39956
  },
  {
    "city": "Melbourne",
    "state": "AR",
    "pop": 1848,
    "lat": 36.05951,
    "lon": -91.90848
  },
  {
    "city": "Mena",
    "state": "AR",
    "pop": 5737,
    "lat": 34.58622,
    "lon": -94.23966
  },
  {
    "city": "Midway",
    "state": "AR",
    "pop": 1084,
    "lat": 36.38534,
    "lon": -92.46183
  },
  {
    "city": "Mineral Springs",
    "state": "AR",
    "pop": 1208,
    "lat": 33.87512,
    "lon": -93.9138
  },
  {
    "city": "Monette",
    "state": "AR",
    "pop": 1501,
    "lat": 35.89063,
    "lon": -90.34427
  },
  {
    "city": "Monticello",
    "state": "AR",
    "pop": 9467,
    "lat": 33.629,
    "lon": -91.79096
  },
  {
    "city": "Morrilton",
    "state": "AR",
    "pop": 6767,
    "lat": 35.15092,
    "lon": -92.74405
  },
  {
    "city": "Mount Ida",
    "state": "AR",
    "pop": 1076,
    "lat": 34.55676,
    "lon": -93.63408
  },
  {
    "city": "Mountain View",
    "state": "AR",
    "pop": 2748,
    "lat": 35.86841,
    "lon": -92.11765
  },
  {
    "city": "Mountain Home",
    "state": "AR",
    "pop": 12448,
    "lat": 36.33534,
    "lon": -92.38516
  },
  {
    "city": "Mulberry",
    "state": "AR",
    "pop": 1655,
    "lat": 35.50064,
    "lon": -94.05159
  },
  {
    "city": "Murfreesboro",
    "state": "AR",
    "pop": 1641,
    "lat": 34.06233,
    "lon": -93.6899
  },
  {
    "city": "Nashville",
    "state": "AR",
    "pop": 4627,
    "lat": 33.94567,
    "lon": -93.84713
  },
  {
    "city": "Newark",
    "state": "AR",
    "pop": 1176,
    "lat": 35.70174,
    "lon": -91.44152
  },
  {
    "city": "Newport",
    "state": "AR",
    "pop": 7879,
    "lat": 35.6048,
    "lon": -91.2818
  },
  {
    "city": "North Crossett",
    "state": "AR",
    "pop": 3119,
    "lat": 33.16568,
    "lon": -91.94152
  },
  {
    "city": "North Little Rock",
    "state": "AR",
    "pop": 62304,
    "lat": 34.76954,
    "lon": -92.26709
  },
  {
    "city": "Ola",
    "state": "AR",
    "pop": 1281,
    "lat": 35.03231,
    "lon": -93.22323
  },
  {
    "city": "Osceola",
    "state": "AR",
    "pop": 7757,
    "lat": 35.70508,
    "lon": -89.96953
  },
  {
    "city": "Ozark",
    "state": "AR",
    "pop": 3684,
    "lat": 35.48703,
    "lon": -93.8277
  },
  {
    "city": "Paragould",
    "state": "AR",
    "pop": 26113,
    "lat": 36.0584,
    "lon": -90.49733
  },
  {
    "city": "Paris",
    "state": "AR",
    "pop": 3532,
    "lat": 35.29203,
    "lon": -93.72992
  },
  {
    "city": "Parkin",
    "state": "AR",
    "pop": 1105,
    "lat": 35.26342,
    "lon": -90.57122
  },
  {
    "city": "Pea Ridge",
    "state": "AR",
    "pop": 2879,
    "lat": 33.92066,
    "lon": -91.33679
  },
  {
    "city": "Pea Ridge",
    "state": "AR",
    "pop": 4794,
    "lat": 36.45396,
    "lon": -94.1152
  },
  {
    "city": "Perryville",
    "state": "AR",
    "pop": 1460,
    "lat": 35.00481,
    "lon": -92.80267
  },
  {
    "city": "Piggott",
    "state": "AR",
    "pop": 3849,
    "lat": 36.38284,
    "lon": -90.19065
  },
  {
    "city": "Pine Bluff",
    "state": "AR",
    "pop": 49083,
    "lat": 34.22843,
    "lon": -92.0032
  },
  {
    "city": "Piney",
    "state": "AR",
    "pop": 4699,
    "lat": 34.50314,
    "lon": -93.12602
  },
  {
    "city": "Pocahontas",
    "state": "AR",
    "pop": 6608,
    "lat": 36.26146,
    "lon": -90.97123
  },
  {
    "city": "Pottsville",
    "state": "AR",
    "pop": 2838,
    "lat": 35.24814,
    "lon": -93.04906
  },
  {
    "city": "Prairie Creek",
    "state": "AR",
    "pop": 2066,
    "lat": 36.34202,
    "lon": -94.06187
  },
  {
    "city": "Prairie Grove",
    "state": "AR",
    "pop": 4380,
    "lat": 35.97591,
    "lon": -94.31771
  },
  {
    "city": "Prescott",
    "state": "AR",
    "pop": 3296,
    "lat": 33.80261,
    "lon": -93.38101
  },
  {
    "city": "Rector",
    "state": "AR",
    "pop": 1977,
    "lat": 36.26312,
    "lon": -90.2926
  },
  {
    "city": "Redfield",
    "state": "AR",
    "pop": 1297,
    "lat": 34.4451,
    "lon": -92.1832
  },
  {
    "city": "Rison",
    "state": "AR",
    "pop": 1344,
    "lat": 33.95843,
    "lon": -92.19015
  },
  {
    "city": "Rockwell",
    "state": "AR",
    "pop": 3780,
    "lat": 34.46426,
    "lon": -93.13379
  },
  {
    "city": "Rogers",
    "state": "AR",
    "pop": 55964,
    "lat": 36.33202,
    "lon": -94.11854
  },
  {
    "city": "Russellville",
    "state": "AR",
    "pop": 27920,
    "lat": 35.27842,
    "lon": -93.13379
  },
  {
    "city": "Salem",
    "state": "AR",
    "pop": 1635,
    "lat": 36.37118,
    "lon": -91.82265
  },
  {
    "city": "Salem",
    "state": "AR",
    "pop": 2607,
    "lat": 34.62898,
    "lon": -92.55822
  },
  {
    "city": "Searcy",
    "state": "AR",
    "pop": 22858,
    "lat": 35.25064,
    "lon": -91.73625
  },
  {
    "city": "Shannon Hills",
    "state": "AR",
    "pop": 3143,
    "lat": 34.62009,
    "lon": -92.39543
  },
  {
    "city": "Sheridan",
    "state": "AR",
    "pop": 4603,
    "lat": 34.30704,
    "lon": -92.40127
  },
  {
    "city": "Siloam Springs",
    "state": "AR",
    "pop": 15039,
    "lat": 36.18814,
    "lon": -94.5405
  },
  {
    "city": "Smackover",
    "state": "AR",
    "pop": 1865,
    "lat": 33.36485,
    "lon": -92.72488
  },
  {
    "city": "Springdale",
    "state": "AR",
    "pop": 69797,
    "lat": 36.18674,
    "lon": -94.12881
  },
  {
    "city": "Stamps",
    "state": "AR",
    "pop": 1693,
    "lat": 33.3654,
    "lon": -93.49518
  },
  {
    "city": "Star City",
    "state": "AR",
    "pop": 2274,
    "lat": 33.94288,
    "lon": -91.84347
  },
  {
    "city": "Stuttgart",
    "state": "AR",
    "pop": 9326,
    "lat": 34.50037,
    "lon": -91.55263
  },
  {
    "city": "Sulphur Springs",
    "state": "AR",
    "pop": 1101,
    "lat": 34.18065,
    "lon": -92.12348
  },
  {
    "city": "Texarkana",
    "state": "AR",
    "pop": 29919,
    "lat": 33.44179,
    "lon": -94.03769
  },
  {
    "city": "Tontitown",
    "state": "AR",
    "pop": 2460,
    "lat": 36.17786,
    "lon": -94.23354
  },
  {
    "city": "Trumann",
    "state": "AR",
    "pop": 7243,
    "lat": 35.67369,
    "lon": -90.50733
  },
  {
    "city": "Tuckerman",
    "state": "AR",
    "pop": 1862,
    "lat": 35.73063,
    "lon": -91.19846
  },
  {
    "city": "Van Buren",
    "state": "AR",
    "pop": 22791,
    "lat": 35.43676,
    "lon": -94.34827
  },
  {
    "city": "Vilonia",
    "state": "AR",
    "pop": 3815,
    "lat": 35.08398,
    "lon": -92.20793
  },
  {
    "city": "Waldo",
    "state": "AR",
    "pop": 1372,
    "lat": 33.35151,
    "lon": -93.29573
  },
  {
    "city": "Waldron",
    "state": "AR",
    "pop": 3618,
    "lat": 34.89843,
    "lon": -94.09076
  },
  {
    "city": "Walnut Ridge",
    "state": "AR",
    "pop": 4890,
    "lat": 36.0684,
    "lon": -90.95595
  },
  {
    "city": "Ward",
    "state": "AR",
    "pop": 4067,
    "lat": 35.03036,
    "lon": -91.95042
  },
  {
    "city": "Warren",
    "state": "AR",
    "pop": 6003,
    "lat": 33.61261,
    "lon": -92.06458
  },
  {
    "city": "West Crossett",
    "state": "AR",
    "pop": 1256,
    "lat": 33.14096,
    "lon": -91.99402
  },
  {
    "city": "West Fork",
    "state": "AR",
    "pop": 2317,
    "lat": 35.92425,
    "lon": -94.18854
  },
  {
    "city": "West Helena",
    "state": "AR",
    "pop": 7679,
    "lat": 34.55066,
    "lon": -90.64177
  },
  {
    "city": "West Memphis",
    "state": "AR",
    "pop": 26245,
    "lat": 35.14648,
    "lon": -90.18454
  },
  {
    "city": "White Hall",
    "state": "AR",
    "pop": 5526,
    "lat": 34.27399,
    "lon": -92.09098
  },
  {
    "city": "Wrightsville",
    "state": "AR",
    "pop": 2114,
    "lat": 34.60232,
    "lon": -92.21681
  },
  {
    "city": "Wynne",
    "state": "AR",
    "pop": 8367,
    "lat": 35.22453,
    "lon": -90.78678
  },
  {
    "city": "Yellville",
    "state": "AR",
    "pop": 1204,
    "lat": 36.22618,
    "lon": -92.68489
  },
  {
    "city": "Washington, D.C.",
    "state": "DC",
    "pop": 601723,
    "lat": 38.89511,
    "lon": -77.03637
  },
  {
    "city": "Bear",
    "state": "DE",
    "pop": 19371,
    "lat": 39.62928,
    "lon": -75.65826
  },
  {
    "city": "Bellefonte",
    "state": "DE",
    "pop": 1193,
    "lat": 39.76622,
    "lon": -75.50936
  },
  {
    "city": "Bethany Beach",
    "state": "DE",
    "pop": 1060,
    "lat": 38.53956,
    "lon": -75.05518
  },
  {
    "city": "Blades",
    "state": "DE",
    "pop": 1241,
    "lat": 38.63567,
    "lon": -75.60993
  },
  {
    "city": "Bridgeville",
    "state": "DE",
    "pop": 2048,
    "lat": 38.74261,
    "lon": -75.60437
  },
  {
    "city": "Brookside",
    "state": "DE",
    "pop": 14353,
    "lat": 39.66706,
    "lon": -75.72688
  },
  {
    "city": "Camden",
    "state": "DE",
    "pop": 3464,
    "lat": 39.11345,
    "lon": -75.54187
  },
  {
    "city": "Cheswold",
    "state": "DE",
    "pop": 1380,
    "lat": 39.21928,
    "lon": -75.58576
  },
  {
    "city": "Claymont",
    "state": "DE",
    "pop": 8253,
    "lat": 39.80067,
    "lon": -75.45964
  },
  {
    "city": "Clayton",
    "state": "DE",
    "pop": 2918,
    "lat": 39.29067,
    "lon": -75.63437
  },
  {
    "city": "Delaware City",
    "state": "DE",
    "pop": 1695,
    "lat": 39.57789,
    "lon": -75.58881
  },
  {
    "city": "Delmar",
    "state": "DE",
    "pop": 1597,
    "lat": 38.45651,
    "lon": -75.57715
  },
  {
    "city": "Dover",
    "state": "DE",
    "pop": 36047,
    "lat": 39.15817,
    "lon": -75.52437
  },
  {
    "city": "Edgemoor",
    "state": "DE",
    "pop": 5677,
    "lat": 39.75011,
    "lon": -75.49964
  },
  {
    "city": "Elsmere",
    "state": "DE",
    "pop": 6131,
    "lat": 39.73928,
    "lon": -75.59798
  },
  {
    "city": "Felton",
    "state": "DE",
    "pop": 1298,
    "lat": 39.00845,
    "lon": -75.57798
  },
  {
    "city": "Georgetown",
    "state": "DE",
    "pop": 6422,
    "lat": 38.69011,
    "lon": -75.38547
  },
  {
    "city": "Glasgow",
    "state": "DE",
    "pop": 14303,
    "lat": 39.60483,
    "lon": -75.74521
  },
  {
    "city": "Greenville",
    "state": "DE",
    "pop": 2326,
    "lat": 39.779,
    "lon": -75.59826
  },
  {
    "city": "Harrington",
    "state": "DE",
    "pop": 3562,
    "lat": 38.92372,
    "lon": -75.5777
  },
  {
    "city": "Highland Acres",
    "state": "DE",
    "pop": 3459,
    "lat": 39.12095,
    "lon": -75.52187
  },
  {
    "city": "Hockessin",
    "state": "DE",
    "pop": 13527,
    "lat": 39.78761,
    "lon": -75.6966
  },
  {
    "city": "Kent Acres",
    "state": "DE",
    "pop": 1890,
    "lat": 39.13178,
    "lon": -75.52492
  },
  {
    "city": "Laurel",
    "state": "DE",
    "pop": 3708,
    "lat": 38.5565,
    "lon": -75.57131
  },
  {
    "city": "Lewes",
    "state": "DE",
    "pop": 2747,
    "lat": 38.77456,
    "lon": -75.13935
  },
  {
    "city": "Long Neck",
    "state": "DE",
    "pop": 1980,
    "lat": 38.62011,
    "lon": -75.15074
  },
  {
    "city": "Middletown",
    "state": "DE",
    "pop": 18871,
    "lat": 39.44956,
    "lon": -75.71632
  },
  {
    "city": "Milford",
    "state": "DE",
    "pop": 9559,
    "lat": 38.91261,
    "lon": -75.42797
  },
  {
    "city": "Millsboro",
    "state": "DE",
    "pop": 3877,
    "lat": 38.5915,
    "lon": -75.2913
  },
  {
    "city": "Milton",
    "state": "DE",
    "pop": 2576,
    "lat": 38.77761,
    "lon": -75.30991
  },
  {
    "city": "New Castle",
    "state": "DE",
    "pop": 5285,
    "lat": 39.66206,
    "lon": -75.56631
  },
  {
    "city": "Newark",
    "state": "DE",
    "pop": 31454,
    "lat": 39.68372,
    "lon": -75.74966
  },
  {
    "city": "Newport",
    "state": "DE",
    "pop": 1055,
    "lat": 39.71372,
    "lon": -75.60937
  },
  {
    "city": "North Star",
    "state": "DE",
    "pop": 7980,
    "lat": 39.76122,
    "lon": -75.7191
  },
  {
    "city": "Pike Creek",
    "state": "DE",
    "pop": 7898,
    "lat": 39.73095,
    "lon": -75.7041
  },
  {
    "city": "Pike Creek Valley",
    "state": "DE",
    "pop": 11217,
    "lat": 39.73622,
    "lon": -75.69827
  },
  {
    "city": "Rehoboth Beach",
    "state": "DE",
    "pop": 1327,
    "lat": 38.72095,
    "lon": -75.07601
  },
  {
    "city": "Riverview",
    "state": "DE",
    "pop": 2456,
    "lat": 39.0265,
    "lon": -75.51076
  },
  {
    "city": "Rodney Village",
    "state": "DE",
    "pop": 1487,
    "lat": 39.13206,
    "lon": -75.53242
  },
  {
    "city": "Seaford",
    "state": "DE",
    "pop": 6928,
    "lat": 38.64123,
    "lon": -75.61104
  },
  {
    "city": "Selbyville",
    "state": "DE",
    "pop": 2167,
    "lat": 38.46039,
    "lon": -75.22074
  },
  {
    "city": "Smyrna",
    "state": "DE",
    "pop": 10023,
    "lat": 39.29983,
    "lon": -75.60465
  },
  {
    "city": "Townsend",
    "state": "DE",
    "pop": 2049,
    "lat": 39.39511,
    "lon": -75.6916
  },
  {
    "city": "Wilmington",
    "state": "DE",
    "pop": 70851,
    "lat": 39.74595,
    "lon": -75.54659
  },
  {
    "city": "Wilmington Manor",
    "state": "DE",
    "pop": 7889,
    "lat": 39.68678,
    "lon": -75.58437
  },
  {
    "city": "Wyoming",
    "state": "DE",
    "pop": 1313,
    "lat": 39.11817,
    "lon": -75.55881
  },
  {
    "city": "Alachua",
    "state": "FL",
    "pop": 9059,
    "lat": 29.75163,
    "lon": -82.42483
  },
  {
    "city": "Allapattah",
    "state": "FL",
    "pop": 54289,
    "lat": 25.81454,
    "lon": -80.22394
  },
  {
    "city": "Altamonte Springs",
    "state": "FL",
    "pop": 41496,
    "lat": 28.66111,
    "lon": -81.36562
  },
  {
    "city": "Alturas",
    "state": "FL",
    "pop": 4185,
    "lat": 27.87169,
    "lon": -81.71508
  },
  {
    "city": "Alva",
    "state": "FL",
    "pop": 2596,
    "lat": 26.71562,
    "lon": -81.61008
  },
  {
    "city": "Andover",
    "state": "FL",
    "pop": 9877,
    "lat": 25.96843,
    "lon": -80.21283
  },
  {
    "city": "Anna Maria",
    "state": "FL",
    "pop": 1503,
    "lat": 27.53115,
    "lon": -82.73343
  },
  {
    "city": "Apalachicola",
    "state": "FL",
    "pop": 2231,
    "lat": 29.726,
    "lon": -84.9856
  },
  {
    "city": "Apollo Beach",
    "state": "FL",
    "pop": 14055,
    "lat": 27.77308,
    "lon": -82.40759
  },
  {
    "city": "Apopka",
    "state": "FL",
    "pop": 41542,
    "lat": 28.67617,
    "lon": -81.51186
  },
  {
    "city": "Arcadia",
    "state": "FL",
    "pop": 7637,
    "lat": 27.21588,
    "lon": -81.85842
  },
  {
    "city": "Archer",
    "state": "FL",
    "pop": 1118,
    "lat": 29.52997,
    "lon": -82.519
  },
  {
    "city": "Asbury Lake",
    "state": "FL",
    "pop": 8700,
    "lat": 30.04913,
    "lon": -81.82149
  },
  {
    "city": "Astatula",
    "state": "FL",
    "pop": 1810,
    "lat": 28.70972,
    "lon": -81.73285
  },
  {
    "city": "Astor",
    "state": "FL",
    "pop": 1556,
    "lat": 29.16248,
    "lon": -81.52535
  },
  {
    "city": "Atlantic Beach",
    "state": "FL",
    "pop": 12655,
    "lat": 30.33441,
    "lon": -81.3987
  },
  {
    "city": "Atlantis",
    "state": "FL",
    "pop": 2005,
    "lat": 26.5909,
    "lon": -80.10088
  },
  {
    "city": "Auburndale",
    "state": "FL",
    "pop": 13507,
    "lat": 28.0653,
    "lon": -81.78869
  },
  {
    "city": "Aventura",
    "state": "FL",
    "pop": 35762,
    "lat": 25.95648,
    "lon": -80.13921
  },
  {
    "city": "Avon Park",
    "state": "FL",
    "pop": 8836,
    "lat": 27.59587,
    "lon": -81.50619
  },
  {
    "city": "Azalea Park",
    "state": "FL",
    "pop": 12556,
    "lat": 28.54111,
    "lon": -81.30062
  },
  {
    "city": "Babson Park",
    "state": "FL",
    "pop": 1356,
    "lat": 27.83197,
    "lon": -81.5223
  },
  {
    "city": "Bagdad",
    "state": "FL",
    "pop": 3761,
    "lat": 30.5988,
    "lon": -87.03223
  },
  {
    "city": "Bal Harbour",
    "state": "FL",
    "pop": 2513,
    "lat": 25.89176,
    "lon": -80.12699
  },
  {
    "city": "Baldwin",
    "state": "FL",
    "pop": 1425,
    "lat": 30.30274,
    "lon": -81.97539
  },
  {
    "city": "Balm",
    "state": "FL",
    "pop": 1457,
    "lat": 27.75947,
    "lon": -82.2612
  },
  {
    "city": "Bartow",
    "state": "FL",
    "pop": 17298,
    "lat": 27.89641,
    "lon": -81.84314
  },
  {
    "city": "Bay Harbor Islands",
    "state": "FL",
    "pop": 5628,
    "lat": 25.88759,
    "lon": -80.13116
  },
  {
    "city": "Bay Hill",
    "state": "FL",
    "pop": 4884,
    "lat": 28.46806,
    "lon": -81.51618
  },
  {
    "city": "Bay Pines",
    "state": "FL",
    "pop": 2931,
    "lat": 27.81419,
    "lon": -82.77816
  },
  {
    "city": "Bayonet Point",
    "state": "FL",
    "pop": 23467,
    "lat": 28.32667,
    "lon": -82.68343
  },
  {
    "city": "Bayshore Gardens",
    "state": "FL",
    "pop": 16323,
    "lat": 27.42532,
    "lon": -82.59038
  },
  {
    "city": "Beacon Square",
    "state": "FL",
    "pop": 7224,
    "lat": 28.20862,
    "lon": -82.75538
  },
  {
    "city": "Bee Ridge",
    "state": "FL",
    "pop": 9598,
    "lat": 27.28394,
    "lon": -82.48065
  },
  {
    "city": "Belle Glade",
    "state": "FL",
    "pop": 17467,
    "lat": 26.68451,
    "lon": -80.66756
  },
  {
    "city": "Belle Glade Camp",
    "state": "FL",
    "pop": 1167,
    "lat": 26.65757,
    "lon": -80.68284
  },
  {
    "city": "Belle Isle",
    "state": "FL",
    "pop": 5988,
    "lat": 28.45834,
    "lon": -81.35924
  },
  {
    "city": "Belleair",
    "state": "FL",
    "pop": 3869,
    "lat": 27.93585,
    "lon": -82.80621
  },
  {
    "city": "Belleair Beach",
    "state": "FL",
    "pop": 1560,
    "lat": 27.92308,
    "lon": -82.84316
  },
  {
    "city": "Belleair Bluffs",
    "state": "FL",
    "pop": 2031,
    "lat": 27.92141,
    "lon": -82.81705
  },
  {
    "city": "Belleview",
    "state": "FL",
    "pop": 4492,
    "lat": 29.05526,
    "lon": -82.06231
  },
  {
    "city": "Bellview",
    "state": "FL",
    "pop": 23355,
    "lat": 30.46159,
    "lon": -87.31497
  },
  {
    "city": "Beverly Hills",
    "state": "FL",
    "pop": 8445,
    "lat": 28.91692,
    "lon": -82.45815
  },
  {
    "city": "Big Coppitt Key",
    "state": "FL",
    "pop": 2458,
    "lat": 24.59653,
    "lon": -81.66009
  },
  {
    "city": "Big Pine Key",
    "state": "FL",
    "pop": 4252,
    "lat": 24.66987,
    "lon": -81.35397
  },
  {
    "city": "Biscayne Park",
    "state": "FL",
    "pop": 3055,
    "lat": 25.8826,
    "lon": -80.1806
  },
  {
    "city": "Bithlo",
    "state": "FL",
    "pop": 8268,
    "lat": 28.55472,
    "lon": -81.10645
  },
  {
    "city": "Black Diamond",
    "state": "FL",
    "pop": 1101,
    "lat": 28.91248,
    "lon": -82.48593
  },
  {
    "city": "Bloomingdale",
    "state": "FL",
    "pop": 22711,
    "lat": 27.89364,
    "lon": -82.24037
  },
  {
    "city": "Blountstown",
    "state": "FL",
    "pop": 2514,
    "lat": 30.44379,
    "lon": -85.04744
  },
  {
    "city": "Boca Del Mar",
    "state": "FL",
    "pop": 24244,
    "lat": 26.34508,
    "lon": -80.14671
  },
  {
    "city": "Boca Pointe",
    "state": "FL",
    "pop": 4073,
    "lat": 26.33313,
    "lon": -80.15949
  },
  {
    "city": "Boca Raton",
    "state": "FL",
    "pop": 84392,
    "lat": 26.35869,
    "lon": -80.0831
  },
  {
    "city": "Bokeelia",
    "state": "FL",
    "pop": 1780,
    "lat": 26.70563,
    "lon": -82.15898
  },
  {
    "city": "Bonifay",
    "state": "FL",
    "pop": 2793,
    "lat": 30.79186,
    "lon": -85.67965
  },
  {
    "city": "Bonita Springs",
    "state": "FL",
    "pop": 43914,
    "lat": 26.33981,
    "lon": -81.7787
  },
  {
    "city": "Bowling Green",
    "state": "FL",
    "pop": 2930,
    "lat": 27.63837,
    "lon": -81.82397
  },
  {
    "city": "Boyette",
    "state": "FL",
    "pop": 6518,
    "lat": 27.81753,
    "lon": -82.22259
  },
  {
    "city": "Boynton Beach",
    "state": "FL",
    "pop": 68217,
    "lat": 26.52535,
    "lon": -80.06643
  },
  {
    "city": "Bradenton",
    "state": "FL",
    "pop": 49546,
    "lat": 27.49893,
    "lon": -82.57482
  },
  {
    "city": "Bradenton Beach",
    "state": "FL",
    "pop": 1171,
    "lat": 27.46698,
    "lon": -82.70399
  },
  {
    "city": "Brandon",
    "state": "FL",
    "pop": 103483,
    "lat": 27.9378,
    "lon": -82.28592
  },
  {
    "city": "Brent",
    "state": "FL",
    "pop": 21804,
    "lat": 30.46881,
    "lon": -87.23608
  },
  {
    "city": "Bristol",
    "state": "FL",
    "pop": 996,
    "lat": 30.43247,
    "lon": -84.97702
  },
  {
    "city": "Broadview Park",
    "state": "FL",
    "pop": 7125,
    "lat": 26.09953,
    "lon": -80.20866
  },
  {
    "city": "Bronson",
    "state": "FL",
    "pop": 1113,
    "lat": 29.44774,
    "lon": -82.64233
  },
  {
    "city": "Brookridge",
    "state": "FL",
    "pop": 4420,
    "lat": 28.5511,
    "lon": -82.49204
  },
  {
    "city": "Brooksville",
    "state": "FL",
    "pop": 7719,
    "lat": 28.55554,
    "lon": -82.38991
  },
  {
    "city": "Broward Estates",
    "state": "FL",
    "pop": 3777,
    "lat": 26.12564,
    "lon": -80.19338
  },
  {
    "city": "Brownsville",
    "state": "FL",
    "pop": 15313,
    "lat": 25.82176,
    "lon": -80.24116
  },
  {
    "city": "Buckhead Ridge",
    "state": "FL",
    "pop": 1450,
    "lat": 27.13033,
    "lon": -80.89367
  },
  {
    "city": "Buckingham",
    "state": "FL",
    "pop": 4036,
    "lat": 26.67507,
    "lon": -81.73203
  },
  {
    "city": "Buenaventura Lakes",
    "state": "FL",
    "pop": 26079,
    "lat": 28.33584,
    "lon": -81.35313
  },
  {
    "city": "Bunche Park",
    "state": "FL",
    "pop": 4080,
    "lat": 25.92065,
    "lon": -80.23699
  },
  {
    "city": "Bunnell",
    "state": "FL",
    "pop": 2676,
    "lat": 29.46609,
    "lon": -81.25784
  },
  {
    "city": "Burnt Store Marina",
    "state": "FL",
    "pop": 1793,
    "lat": 26.76507,
    "lon": -82.05092
  },
  {
    "city": "Bushnell",
    "state": "FL",
    "pop": 2418,
    "lat": 28.66499,
    "lon": -82.11286
  },
  {
    "city": "Butler Beach",
    "state": "FL",
    "pop": 4951,
    "lat": 29.7983,
    "lon": -81.26701
  },
  {
    "city": "Callahan",
    "state": "FL",
    "pop": 1123,
    "lat": 30.56218,
    "lon": -81.83066
  },
  {
    "city": "Callaway",
    "state": "FL",
    "pop": 14405,
    "lat": 30.15298,
    "lon": -85.56993
  },
  {
    "city": "Campbell",
    "state": "FL",
    "pop": 2479,
    "lat": 28.2589,
    "lon": -81.45646
  },
  {
    "city": "Cantonment",
    "state": "FL",
    "pop": 26493,
    "lat": 30.60853,
    "lon": -87.33998
  },
  {
    "city": "Cape Canaveral",
    "state": "FL",
    "pop": 9912,
    "lat": 28.40584,
    "lon": -80.60477
  },
  {
    "city": "Cape Coral",
    "state": "FL",
    "pop": 154305,
    "lat": 26.56285,
    "lon": -81.94953
  },
  {
    "city": "Carol City",
    "state": "FL",
    "pop": 63031,
    "lat": 25.94065,
    "lon": -80.2456
  },
  {
    "city": "Carrabelle",
    "state": "FL",
    "pop": 2778,
    "lat": 29.85326,
    "lon": -84.66435
  },
  {
    "city": "Carrollwood",
    "state": "FL",
    "pop": 33365,
    "lat": 28.05002,
    "lon": -82.49287
  },
  {
    "city": "Carrollwood Village",
    "state": "FL",
    "pop": 40949,
    "lat": 28.06752,
    "lon": -82.52093
  },
  {
    "city": "Carver Ranches",
    "state": "FL",
    "pop": 4406,
    "lat": 25.98842,
    "lon": -80.19227
  },
  {
    "city": "Casselberry",
    "state": "FL",
    "pop": 26241,
    "lat": 28.67778,
    "lon": -81.32785
  },
  {
    "city": "Cedar Grove",
    "state": "FL",
    "pop": 3397,
    "lat": 30.17103,
    "lon": -85.6252
  },
  {
    "city": "Celebration",
    "state": "FL",
    "pop": 7427,
    "lat": 28.32529,
    "lon": -81.53313
  },
  {
    "city": "Century",
    "state": "FL",
    "pop": 1698,
    "lat": 30.97324,
    "lon": -87.26386
  },
  {
    "city": "Charlotte Harbor",
    "state": "FL",
    "pop": 3714,
    "lat": 26.95839,
    "lon": -82.06703
  },
  {
    "city": "Charlotte Park",
    "state": "FL",
    "pop": 2325,
    "lat": 26.91006,
    "lon": -82.05398
  },
  {
    "city": "Chattahoochee",
    "state": "FL",
    "pop": 3652,
    "lat": 30.70546,
    "lon": -84.84574
  },
  {
    "city": "Cheval",
    "state": "FL",
    "pop": 10702,
    "lat": 28.14862,
    "lon": -82.51454
  },
  {
    "city": "Chiefland",
    "state": "FL",
    "pop": 2245,
    "lat": 29.47496,
    "lon": -82.85984
  },
  {
    "city": "Chipley",
    "state": "FL",
    "pop": 3605,
    "lat": 30.78186,
    "lon": -85.53854
  },
  {
    "city": "Christmas",
    "state": "FL",
    "pop": 1146,
    "lat": 28.53639,
    "lon": -81.01756
  },
  {
    "city": "Chuluota",
    "state": "FL",
    "pop": 2483,
    "lat": 28.64194,
    "lon": -81.1234
  },
  {
    "city": "Citra",
    "state": "FL",
    "pop": 5732,
    "lat": 29.41192,
    "lon": -82.10982
  },
  {
    "city": "Citrus Hills",
    "state": "FL",
    "pop": 7470,
    "lat": 28.88831,
    "lon": -82.4326
  },
  {
    "city": "Citrus Park",
    "state": "FL",
    "pop": 24252,
    "lat": 28.07835,
    "lon": -82.56982
  },
  {
    "city": "Citrus Ridge",
    "state": "FL",
    "pop": 13285,
    "lat": 28.33385,
    "lon": -81.64232
  },
  {
    "city": "Citrus Springs",
    "state": "FL",
    "pop": 8622,
    "lat": 28.99748,
    "lon": -82.47065
  },
  {
    "city": "Clarcona",
    "state": "FL",
    "pop": 2990,
    "lat": 28.61278,
    "lon": -81.49868
  },
  {
    "city": "Clearwater",
    "state": "FL",
    "pop": 107685,
    "lat": 27.96585,
    "lon": -82.8001
  },
  {
    "city": "Clermont",
    "state": "FL",
    "pop": 28742,
    "lat": 28.54944,
    "lon": -81.77285
  },
  {
    "city": "Clewiston",
    "state": "FL",
    "pop": 7155,
    "lat": 26.75423,
    "lon": -80.93368
  },
  {
    "city": "Cleveland",
    "state": "FL",
    "pop": 2990,
    "lat": 26.96173,
    "lon": -81.98398
  },
  {
    "city": "Cocoa",
    "state": "FL",
    "pop": 17140,
    "lat": 28.38612,
    "lon": -80.742
  },
  {
    "city": "Cocoa Beach",
    "state": "FL",
    "pop": 11231,
    "lat": 28.32001,
    "lon": -80.60755
  },
  {
    "city": "Coconut Creek",
    "state": "FL",
    "pop": 52909,
    "lat": 26.25175,
    "lon": -80.17894
  },
  {
    "city": "Coconut Grove",
    "state": "FL",
    "pop": 20076,
    "lat": 25.7126,
    "lon": -80.25699
  },
  {
    "city": "Combee Settlement",
    "state": "FL",
    "pop": 5577,
    "lat": 28.05835,
    "lon": -81.90536
  },
  {
    "city": "Conway",
    "state": "FL",
    "pop": 13467,
    "lat": 28.50278,
    "lon": -81.33062
  },
  {
    "city": "Cooper City",
    "state": "FL",
    "pop": 28547,
    "lat": 26.05731,
    "lon": -80.27172
  },
  {
    "city": "Coral Gables",
    "state": "FL",
    "pop": 46780,
    "lat": 25.72149,
    "lon": -80.26838
  },
  {
    "city": "Coral Springs",
    "state": "FL",
    "pop": 121096,
    "lat": 26.27119,
    "lon": -80.2706
  },
  {
    "city": "Coral Terrace",
    "state": "FL",
    "pop": 24376,
    "lat": 25.74593,
    "lon": -80.3045
  },
  {
    "city": "Cortez",
    "state": "FL",
    "pop": 4241,
    "lat": 27.46921,
    "lon": -82.68621
  },
  {
    "city": "Country Walk",
    "state": "FL",
    "pop": 15997,
    "lat": 25.63399,
    "lon": -80.43228
  },
  {
    "city": "Country Club",
    "state": "FL",
    "pop": 47105,
    "lat": 25.94815,
    "lon": -80.317
  },
  {
    "city": "Crawfordville",
    "state": "FL",
    "pop": 3702,
    "lat": 30.17604,
    "lon": -84.37518
  },
  {
    "city": "Crescent City",
    "state": "FL",
    "pop": 1577,
    "lat": 29.43025,
    "lon": -81.51063
  },
  {
    "city": "Crestview",
    "state": "FL",
    "pop": 20978,
    "lat": 30.76213,
    "lon": -86.57051
  },
  {
    "city": "Crooked Lake Park",
    "state": "FL",
    "pop": 1722,
    "lat": 27.82919,
    "lon": -81.58397
  },
  {
    "city": "Cross City",
    "state": "FL",
    "pop": 1728,
    "lat": 29.63465,
    "lon": -83.12694
  },
  {
    "city": "Crystal Lake",
    "state": "FL",
    "pop": 5514,
    "lat": 28.03558,
    "lon": -81.90841
  },
  {
    "city": "Crystal River",
    "state": "FL",
    "pop": 3108,
    "lat": 28.90248,
    "lon": -82.5926
  },
  {
    "city": "Crystal Springs",
    "state": "FL",
    "pop": 1327,
    "lat": 28.1814,
    "lon": -82.15758
  },
  {
    "city": "Cudjoe Key",
    "state": "FL",
    "pop": 1763,
    "lat": 24.67153,
    "lon": -81.49842
  },
  {
    "city": "Cutler",
    "state": "FL",
    "pop": 18117,
    "lat": 25.6151,
    "lon": -80.31061
  },
  {
    "city": "Cutler Ridge",
    "state": "FL",
    "pop": 26831,
    "lat": 25.58066,
    "lon": -80.34672
  },
  {
    "city": "Cypress Gardens",
    "state": "FL",
    "pop": 8917,
    "lat": 27.99391,
    "lon": -81.69008
  },
  {
    "city": "Cypress Lake",
    "state": "FL",
    "pop": 11846,
    "lat": 26.53813,
    "lon": -81.89925
  },
  {
    "city": "Cypress Quarters",
    "state": "FL",
    "pop": 1215,
    "lat": 27.25199,
    "lon": -80.81395
  },
  {
    "city": "Dade City",
    "state": "FL",
    "pop": 6437,
    "lat": 28.36472,
    "lon": -82.19592
  },
  {
    "city": "Dania Beach",
    "state": "FL",
    "pop": 29639,
    "lat": 26.05231,
    "lon": -80.14393
  },
  {
    "city": "Davenport",
    "state": "FL",
    "pop": 2888,
    "lat": 28.1614,
    "lon": -81.60174
  },
  {
    "city": "Davie",
    "state": "FL",
    "pop": 91992,
    "lat": 26.06287,
    "lon": -80.2331
  },
  {
    "city": "Daytona Beach",
    "state": "FL",
    "pop": 61005,
    "lat": 29.21081,
    "lon": -81.02283
  },
  {
    "city": "Daytona Beach Shores",
    "state": "FL",
    "pop": 4247,
    "lat": 29.17609,
    "lon": -80.98283
  },
  {
    "city": "DeFuniak Springs",
    "state": "FL",
    "pop": 5177,
    "lat": 30.72102,
    "lon": -86.11522
  },
  {
    "city": "DeLand",
    "state": "FL",
    "pop": 27031,
    "lat": 29.02832,
    "lon": -81.30312
  },
  {
    "city": "De Leon Springs",
    "state": "FL",
    "pop": 2614,
    "lat": 29.11989,
    "lon": -81.35286
  },
  {
    "city": "DeBary",
    "state": "FL",
    "pop": 19320,
    "lat": 28.88305,
    "lon": -81.30868
  },
  {
    "city": "Deerfield Beach",
    "state": "FL",
    "pop": 75018,
    "lat": 26.31841,
    "lon": -80.09977
  },
  {
    "city": "Delray Beach",
    "state": "FL",
    "pop": 60522,
    "lat": 26.46146,
    "lon": -80.07282
  },
  {
    "city": "Deltona",
    "state": "FL",
    "pop": 85182,
    "lat": 28.90054,
    "lon": -81.26367
  },
  {
    "city": "Desoto Lakes",
    "state": "FL",
    "pop": 3646,
    "lat": 27.37143,
    "lon": -82.48982
  },
  {
    "city": "Destin",
    "state": "FL",
    "pop": 12305,
    "lat": 30.39353,
    "lon": -86.49578
  },
  {
    "city": "Doctor Phillips",
    "state": "FL",
    "pop": 10981,
    "lat": 28.44945,
    "lon": -81.49229
  },
  {
    "city": "Doral",
    "state": "FL",
    "pop": 45704,
    "lat": 25.81954,
    "lon": -80.35533
  },
  {
    "city": "Dover",
    "state": "FL",
    "pop": 3702,
    "lat": 27.99419,
    "lon": -82.21953
  },
  {
    "city": "Dundee",
    "state": "FL",
    "pop": 3717,
    "lat": 28.02252,
    "lon": -81.61924
  },
  {
    "city": "Dunedin",
    "state": "FL",
    "pop": 35321,
    "lat": 28.0199,
    "lon": -82.77323
  },
  {
    "city": "Dunnellon",
    "state": "FL",
    "pop": 1733,
    "lat": 29.04914,
    "lon": -82.46093
  },
  {
    "city": "Eagle Lake",
    "state": "FL",
    "pop": 2255,
    "lat": 27.97836,
    "lon": -81.75647
  },
  {
    "city": "East Lake",
    "state": "FL",
    "pop": 30962,
    "lat": 28.11085,
    "lon": -82.69482
  },
  {
    "city": "East Milton",
    "state": "FL",
    "pop": 11074,
    "lat": 30.61519,
    "lon": -87.02163
  },
  {
    "city": "East Palatka",
    "state": "FL",
    "pop": 1654,
    "lat": 29.6583,
    "lon": -81.59841
  },
  {
    "city": "East Pensacola Heights",
    "state": "FL",
    "pop": 54104,
    "lat": 30.42881,
    "lon": -87.17997
  },
  {
    "city": "East Perrine",
    "state": "FL",
    "pop": 7156,
    "lat": 25.60872,
    "lon": -80.33894
  },
  {
    "city": "Eastpoint",
    "state": "FL",
    "pop": 2337,
    "lat": 29.7366,
    "lon": -84.87852
  },
  {
    "city": "Eatonville",
    "state": "FL",
    "pop": 2159,
    "lat": 28.61472,
    "lon": -81.38062
  },
  {
    "city": "Edgewater",
    "state": "FL",
    "pop": 20750,
    "lat": 28.98888,
    "lon": -80.90228
  },
  {
    "city": "Edgewood",
    "state": "FL",
    "pop": 2503,
    "lat": 28.48612,
    "lon": -81.37229
  },
  {
    "city": "Eglin Village",
    "state": "FL",
    "pop": 7000,
    "lat": 30.46298,
    "lon": -86.5394
  },
  {
    "city": "Egypt Lake-Leto",
    "state": "FL",
    "pop": 35282,
    "lat": 28.01769,
    "lon": -82.50619
  },
  {
    "city": "El Portal",
    "state": "FL",
    "pop": 2325,
    "lat": 25.85537,
    "lon": -80.1931
  },
  {
    "city": "Elfers",
    "state": "FL",
    "pop": 13986,
    "lat": 28.21668,
    "lon": -82.72232
  },
  {
    "city": "Ellenton",
    "state": "FL",
    "pop": 4275,
    "lat": 27.52171,
    "lon": -82.5276
  },
  {
    "city": "Englewood",
    "state": "FL",
    "pop": 14863,
    "lat": 26.96201,
    "lon": -82.3526
  },
  {
    "city": "Ensley",
    "state": "FL",
    "pop": 20602,
    "lat": 30.51881,
    "lon": -87.27275
  },
  {
    "city": "Estero",
    "state": "FL",
    "pop": 22612,
    "lat": 26.43814,
    "lon": -81.80675
  },
  {
    "city": "Eustis",
    "state": "FL",
    "pop": 18558,
    "lat": 28.85277,
    "lon": -81.68535
  },
  {
    "city": "Fairview Shores",
    "state": "FL",
    "pop": 10239,
    "lat": 28.59111,
    "lon": -81.39424
  },
  {
    "city": "Feather Sound",
    "state": "FL",
    "pop": 3420,
    "lat": 27.90079,
    "lon": -82.67349
  },
  {
    "city": "Fellsmere",
    "state": "FL",
    "pop": 5197,
    "lat": 27.76781,
    "lon": -80.60144
  },
  {
    "city": "Fern Park",
    "state": "FL",
    "pop": 7704,
    "lat": 28.64916,
    "lon": -81.35118
  },
  {
    "city": "Fernandina Beach",
    "state": "FL",
    "pop": 11487,
    "lat": 30.66968,
    "lon": -81.46259
  },
  {
    "city": "Ferry Pass",
    "state": "FL",
    "pop": 28921,
    "lat": 30.5102,
    "lon": -87.21247
  },
  {
    "city": "Fish Hawk",
    "state": "FL",
    "pop": 14087,
    "lat": 27.85058,
    "lon": -82.21092
  },
  {
    "city": "Five Points",
    "state": "FL",
    "pop": 1265,
    "lat": 30.20912,
    "lon": -82.63735
  },
  {
    "city": "Flagami",
    "state": "FL",
    "pop": 50834,
    "lat": 25.76232,
    "lon": -80.31616
  },
  {
    "city": "Flagler Beach",
    "state": "FL",
    "pop": 4484,
    "lat": 29.47498,
    "lon": -81.127
  },
  {
    "city": "Floral City",
    "state": "FL",
    "pop": 5217,
    "lat": 28.74999,
    "lon": -82.29676
  },
  {
    "city": "Florida City",
    "state": "FL",
    "pop": 11245,
    "lat": 25.44789,
    "lon": -80.47922
  },
  {
    "city": "Florida Ridge",
    "state": "FL",
    "pop": 18164,
    "lat": 27.58031,
    "lon": -80.38672
  },
  {
    "city": "Forest City",
    "state": "FL",
    "pop": 13854,
    "lat": 28.66678,
    "lon": -81.44334
  },
  {
    "city": "Fort Lauderdale",
    "state": "FL",
    "pop": 165521,
    "lat": 26.12231,
    "lon": -80.14338
  },
  {
    "city": "Fort Meade",
    "state": "FL",
    "pop": 5626,
    "lat": 27.75225,
    "lon": -81.80175
  },
  {
    "city": "Fort Myers",
    "state": "FL",
    "pop": 62298,
    "lat": 26.62168,
    "lon": -81.84059
  },
  {
    "city": "Fort Myers Beach",
    "state": "FL",
    "pop": 6277,
    "lat": 26.45271,
    "lon": -81.95011
  },
  {
    "city": "Fort Myers Shores",
    "state": "FL",
    "pop": 5487,
    "lat": 26.70924,
    "lon": -81.74592
  },
  {
    "city": "Fort Pierce",
    "state": "FL",
    "pop": 41590,
    "lat": 27.44671,
    "lon": -80.32561
  },
  {
    "city": "Fort Walton Beach",
    "state": "FL",
    "pop": 19507,
    "lat": 30.42077,
    "lon": -86.61939
  },
  {
    "city": "Fountainebleau",
    "state": "FL",
    "pop": 59764,
    "lat": 25.77288,
    "lon": -80.34783
  },
  {
    "city": "Freeport",
    "state": "FL",
    "pop": 1787,
    "lat": 30.49825,
    "lon": -86.13605
  },
  {
    "city": "Frostproof",
    "state": "FL",
    "pop": 2992,
    "lat": 27.74586,
    "lon": -81.53063
  },
  {
    "city": "Fruit Cove",
    "state": "FL",
    "pop": 29362,
    "lat": 30.11107,
    "lon": -81.64176
  },
  {
    "city": "Fruitland Park",
    "state": "FL",
    "pop": 4078,
    "lat": 28.86138,
    "lon": -81.90647
  },
  {
    "city": "Fruitville",
    "state": "FL",
    "pop": 13224,
    "lat": 27.32977,
    "lon": -82.4576
  },
  {
    "city": "Fuller Heights",
    "state": "FL",
    "pop": 8758,
    "lat": 27.90919,
    "lon": -81.99814
  },
  {
    "city": "Fussels Corner",
    "state": "FL",
    "pop": 5561,
    "lat": 28.05419,
    "lon": -81.86064
  },
  {
    "city": "Gainesville",
    "state": "FL",
    "pop": 124354,
    "lat": 29.65163,
    "lon": -82.32483
  },
  {
    "city": "Gandy",
    "state": "FL",
    "pop": 2031,
    "lat": 27.8685,
    "lon": -82.61612
  },
  {
    "city": "Gateway",
    "state": "FL",
    "pop": 8401,
    "lat": 26.57757,
    "lon": -81.75036
  },
  {
    "city": "Geneva",
    "state": "FL",
    "pop": 2940,
    "lat": 28.73972,
    "lon": -81.11506
  },
  {
    "city": "Gibsonia",
    "state": "FL",
    "pop": 4571,
    "lat": 28.11474,
    "lon": -81.97369
  },
  {
    "city": "Gibsonton",
    "state": "FL",
    "pop": 14234,
    "lat": 27.85364,
    "lon": -82.38259
  },
  {
    "city": "Gifford",
    "state": "FL",
    "pop": 9590,
    "lat": 27.67531,
    "lon": -80.40922
  },
  {
    "city": "Gladeview",
    "state": "FL",
    "pop": 11535,
    "lat": 25.83926,
    "lon": -80.2356
  },
  {
    "city": "Glencoe",
    "state": "FL",
    "pop": 2582,
    "lat": 29.02582,
    "lon": -80.972
  },
  {
    "city": "Glenvar Heights",
    "state": "FL",
    "pop": 16898,
    "lat": 25.7076,
    "lon": -80.32561
  },
  {
    "city": "Golden Gate",
    "state": "FL",
    "pop": 23961,
    "lat": 26.18787,
    "lon": -81.69509
  },
  {
    "city": "Golden Glades",
    "state": "FL",
    "pop": 33145,
    "lat": 25.91176,
    "lon": -80.20033
  },
  {
    "city": "Goldenrod",
    "state": "FL",
    "pop": 12039,
    "lat": 28.61028,
    "lon": -81.28868
  },
  {
    "city": "Gonzalez",
    "state": "FL",
    "pop": 13273,
    "lat": 30.58158,
    "lon": -87.29136
  },
  {
    "city": "Gotha",
    "state": "FL",
    "pop": 1915,
    "lat": 28.52778,
    "lon": -81.52313
  },
  {
    "city": "Goulding",
    "state": "FL",
    "pop": 4102,
    "lat": 30.44298,
    "lon": -87.22247
  },
  {
    "city": "Goulds",
    "state": "FL",
    "pop": 10103,
    "lat": 25.56261,
    "lon": -80.38228
  },
  {
    "city": "Graceville",
    "state": "FL",
    "pop": 2278,
    "lat": 30.95685,
    "lon": -85.5166
  },
  {
    "city": "Green Cove Springs",
    "state": "FL",
    "pop": 6908,
    "lat": 29.99191,
    "lon": -81.67815
  },
  {
    "city": "Greenacres City",
    "state": "FL",
    "pop": 32963,
    "lat": 26.62368,
    "lon": -80.12532
  },
  {
    "city": "Gretna",
    "state": "FL",
    "pop": 1460,
    "lat": 30.61714,
    "lon": -84.65991
  },
  {
    "city": "Grove City",
    "state": "FL",
    "pop": 1804,
    "lat": 26.91423,
    "lon": -82.32704
  },
  {
    "city": "Groveland",
    "state": "FL",
    "pop": 8729,
    "lat": 28.55805,
    "lon": -81.85119
  },
  {
    "city": "Gulf Breeze",
    "state": "FL",
    "pop": 5763,
    "lat": 30.35714,
    "lon": -87.16386
  },
  {
    "city": "Gulf Gate Estates",
    "state": "FL",
    "pop": 10911,
    "lat": 27.25173,
    "lon": -82.51471
  },
  {
    "city": "Gulfport",
    "state": "FL",
    "pop": 12029,
    "lat": 27.74836,
    "lon": -82.70343
  },
  {
    "city": "Haines City",
    "state": "FL",
    "pop": 20535,
    "lat": 28.1145,
    "lon": -81.62009
  },
  {
    "city": "Hallandale Beach",
    "state": "FL",
    "pop": 37113,
    "lat": 25.9812,
    "lon": -80.14838
  },
  {
    "city": "Harbor Bluffs",
    "state": "FL",
    "pop": 2860,
    "lat": 27.90947,
    "lon": -82.8276
  },
  {
    "city": "Harbour Heights",
    "state": "FL",
    "pop": 2987,
    "lat": 26.99089,
    "lon": -82.00231
  },
  {
    "city": "Harlem",
    "state": "FL",
    "pop": 2658,
    "lat": 26.73757,
    "lon": -80.9509
  },
  {
    "city": "Harlem Heights",
    "state": "FL",
    "pop": 1975,
    "lat": 26.51619,
    "lon": -81.92787
  },
  {
    "city": "Havana",
    "state": "FL",
    "pop": 1754,
    "lat": 30.62381,
    "lon": -84.41463
  },
  {
    "city": "Haverhill",
    "state": "FL",
    "pop": 1873,
    "lat": 26.69118,
    "lon": -80.12004
  },
  {
    "city": "Hawthorne",
    "state": "FL",
    "pop": 1417,
    "lat": 29.59191,
    "lon": -82.08732
  },
  {
    "city": "Hawthorne",
    "state": "FL",
    "pop": 1475,
    "lat": 28.76138,
    "lon": -81.87091
  },
  {
    "city": "Heathrow",
    "state": "FL",
    "pop": 5896,
    "lat": 28.76333,
    "lon": -81.37225
  },
  {
    "city": "Hernando",
    "state": "FL",
    "pop": 9054,
    "lat": 28.89998,
    "lon": -82.37454
  },
  {
    "city": "Hernando Beach",
    "state": "FL",
    "pop": 2299,
    "lat": 28.46944,
    "lon": -82.65927
  },
  {
    "city": "Hialeah",
    "state": "FL",
    "pop": 224669,
    "lat": 25.8576,
    "lon": -80.27811
  },
  {
    "city": "Hialeah Gardens",
    "state": "FL",
    "pop": 21744,
    "lat": 25.8651,
    "lon": -80.3245
  },
  {
    "city": "High Springs",
    "state": "FL",
    "pop": 5350,
    "lat": 29.82691,
    "lon": -82.59678
  },
  {
    "city": "Highland Beach",
    "state": "FL",
    "pop": 3539,
    "lat": 26.39952,
    "lon": -80.0656
  },
  {
    "city": "Highland City",
    "state": "FL",
    "pop": 10834,
    "lat": 27.9653,
    "lon": -81.87786
  },
  {
    "city": "Hiland Park",
    "state": "FL",
    "pop": 1105,
    "lat": 30.20103,
    "lon": -85.62687
  },
  {
    "city": "Hill 'n Dale",
    "state": "FL",
    "pop": 1934,
    "lat": 28.51972,
    "lon": -82.29926
  },
  {
    "city": "Hilliard",
    "state": "FL",
    "pop": 3086,
    "lat": 30.69107,
    "lon": -81.91733
  },
  {
    "city": "Hillsboro Beach",
    "state": "FL",
    "pop": 1875,
    "lat": 26.29397,
    "lon": -80.07893
  },
  {
    "city": "Hobe Sound",
    "state": "FL",
    "pop": 11521,
    "lat": 27.0595,
    "lon": -80.13643
  },
  {
    "city": "Holden Heights",
    "state": "FL",
    "pop": 3679,
    "lat": 28.49667,
    "lon": -81.38785
  },
  {
    "city": "Holiday",
    "state": "FL",
    "pop": 22403,
    "lat": 28.18779,
    "lon": -82.73955
  },
  {
    "city": "Holley",
    "state": "FL",
    "pop": 1630,
    "lat": 30.44686,
    "lon": -86.90691
  },
  {
    "city": "Holly Hill",
    "state": "FL",
    "pop": 11659,
    "lat": 29.24359,
    "lon": -81.03756
  },
  {
    "city": "Hollywood",
    "state": "FL",
    "pop": 140768,
    "lat": 26.0112,
    "lon": -80.14949
  },
  {
    "city": "Holmes Beach",
    "state": "FL",
    "pop": 3836,
    "lat": 27.49532,
    "lon": -82.71093
  },
  {
    "city": "Homestead",
    "state": "FL",
    "pop": 60512,
    "lat": 25.46872,
    "lon": -80.47756
  },
  {
    "city": "Homosassa",
    "state": "FL",
    "pop": 2578,
    "lat": 28.78137,
    "lon": -82.6151
  },
  {
    "city": "Homosassa Springs",
    "state": "FL",
    "pop": 13791,
    "lat": 28.80359,
    "lon": -82.57593
  },
  {
    "city": "Howie In The Hills",
    "state": "FL",
    "pop": 1098,
    "lat": 28.71694,
    "lon": -81.77341
  },
  {
    "city": "Hudson",
    "state": "FL",
    "pop": 12158,
    "lat": 28.36445,
    "lon": -82.69343
  },
  {
    "city": "Hunters Creek",
    "state": "FL",
    "pop": 14321,
    "lat": 28.36056,
    "lon": -81.42229
  },
  {
    "city": "Hypoluxo",
    "state": "FL",
    "pop": 2588,
    "lat": 26.56646,
    "lon": -80.05337
  },
  {
    "city": "Immokalee",
    "state": "FL",
    "pop": 24154,
    "lat": 26.41869,
    "lon": -81.4173
  },
  {
    "city": "Indialantic",
    "state": "FL",
    "pop": 2720,
    "lat": 28.08946,
    "lon": -80.56561
  },
  {
    "city": "Indian Harbour Beach",
    "state": "FL",
    "pop": 8225,
    "lat": 28.1489,
    "lon": -80.58839
  },
  {
    "city": "Indian River Estates",
    "state": "FL",
    "pop": 6220,
    "lat": 27.36449,
    "lon": -80.30977
  },
  {
    "city": "Indian River Shores",
    "state": "FL",
    "pop": 3901,
    "lat": 27.7167,
    "lon": -80.38422
  },
  {
    "city": "Indian Rocks Beach",
    "state": "FL",
    "pop": 4113,
    "lat": 27.8753,
    "lon": -82.85122
  },
  {
    "city": "Indian Shores",
    "state": "FL",
    "pop": 1420,
    "lat": 27.8628,
    "lon": -82.84844
  },
  {
    "city": "Indiantown",
    "state": "FL",
    "pop": 6083,
    "lat": 27.02728,
    "lon": -80.48561
  },
  {
    "city": "Inglis",
    "state": "FL",
    "pop": 1325,
    "lat": 29.03025,
    "lon": -82.66872
  },
  {
    "city": "Interlachen",
    "state": "FL",
    "pop": 1403,
    "lat": 29.62421,
    "lon": -81.89256
  },
  {
    "city": "Inverness",
    "state": "FL",
    "pop": 7210,
    "lat": 28.83582,
    "lon": -82.33037
  },
  {
    "city": "Inwood",
    "state": "FL",
    "pop": 6403,
    "lat": 28.03697,
    "lon": -81.76508
  },
  {
    "city": "Iona",
    "state": "FL",
    "pop": 15369,
    "lat": 26.52036,
    "lon": -81.96398
  },
  {
    "city": "Islamorada",
    "state": "FL",
    "pop": 7131,
    "lat": 24.9243,
    "lon": -80.62784
  },
  {
    "city": "Ives Estates",
    "state": "FL",
    "pop": 19525,
    "lat": 25.96231,
    "lon": -80.17671
  },
  {
    "city": "Jacksonville",
    "state": "FL",
    "pop": 821784,
    "lat": 30.33218,
    "lon": -81.65565
  },
  {
    "city": "Jacksonville Beach",
    "state": "FL",
    "pop": 21362,
    "lat": 30.29469,
    "lon": -81.39314
  },
  {
    "city": "Jan-Phyl Village",
    "state": "FL",
    "pop": 5573,
    "lat": 28.01474,
    "lon": -81.77175
  },
  {
    "city": "Jasmine Estates",
    "state": "FL",
    "pop": 18989,
    "lat": 28.29306,
    "lon": -82.6901
  },
  {
    "city": "Jasper",
    "state": "FL",
    "pop": 4546,
    "lat": 30.51827,
    "lon": -82.94819
  },
  {
    "city": "Jensen Beach",
    "state": "FL",
    "pop": 11707,
    "lat": 27.25449,
    "lon": -80.22977
  },
  {
    "city": "June Park",
    "state": "FL",
    "pop": 4094,
    "lat": 28.07224,
    "lon": -80.68006
  },
  {
    "city": "Juno Beach",
    "state": "FL",
    "pop": 3176,
    "lat": 26.87978,
    "lon": -80.05337
  },
  {
    "city": "Jupiter",
    "state": "FL",
    "pop": 55156,
    "lat": 26.93422,
    "lon": -80.09421
  },
  {
    "city": "Kathleen",
    "state": "FL",
    "pop": 6332,
    "lat": 28.12085,
    "lon": -82.02314
  },
  {
    "city": "Kendale Lakes",
    "state": "FL",
    "pop": 56148,
    "lat": 25.70816,
    "lon": -80.407
  },
  {
    "city": "Kendall",
    "state": "FL",
    "pop": 75371,
    "lat": 25.67927,
    "lon": -80.31727
  },
  {
    "city": "Kendall Green",
    "state": "FL",
    "pop": 3048,
    "lat": 26.25397,
    "lon": -80.12393
  },
  {
    "city": "Kenneth City",
    "state": "FL",
    "pop": 4980,
    "lat": 27.81558,
    "lon": -82.7201
  },
  {
    "city": "Kensington Park",
    "state": "FL",
    "pop": 3901,
    "lat": 27.35949,
    "lon": -82.49649
  },
  {
    "city": "Key Biscayne",
    "state": "FL",
    "pop": 12344,
    "lat": 25.69371,
    "lon": -80.16282
  },
  {
    "city": "Key Largo",
    "state": "FL",
    "pop": 10433,
    "lat": 25.08652,
    "lon": -80.44728
  },
  {
    "city": "Key West",
    "state": "FL",
    "pop": 24649,
    "lat": 24.55524,
    "lon": -81.78163
  },
  {
    "city": "Keystone",
    "state": "FL",
    "pop": 24039,
    "lat": 28.15585,
    "lon": -82.62121
  },
  {
    "city": "Keystone Heights",
    "state": "FL",
    "pop": 1350,
    "lat": 29.78608,
    "lon": -82.03149
  },
  {
    "city": "Kings Point",
    "state": "FL",
    "pop": 12201,
    "lat": 26.44535,
    "lon": -80.13977
  },
  {
    "city": "Kissimmee",
    "state": "FL",
    "pop": 59682,
    "lat": 28.30468,
    "lon": -81.41667
  },
  {
    "city": "LaBelle",
    "state": "FL",
    "pop": 4640,
    "lat": 26.76173,
    "lon": -81.43841
  },
  {
    "city": "Lacoochee",
    "state": "FL",
    "pop": 1714,
    "lat": 28.46583,
    "lon": -82.17203
  },
  {
    "city": "Lady Lake",
    "state": "FL",
    "pop": 13926,
    "lat": 28.91749,
    "lon": -81.92286
  },
  {
    "city": "Laguna Beach",
    "state": "FL",
    "pop": 3932,
    "lat": 30.23965,
    "lon": -85.9241
  },
  {
    "city": "Lake Alfred",
    "state": "FL",
    "pop": 5015,
    "lat": 28.09196,
    "lon": -81.72341
  },
  {
    "city": "Lake Belvedere Estates",
    "state": "FL",
    "pop": 3334,
    "lat": 26.68923,
    "lon": -80.13338
  },
  {
    "city": "Lake Butler",
    "state": "FL",
    "pop": 1897,
    "lat": 30.02274,
    "lon": -82.33956
  },
  {
    "city": "Lake Butler",
    "state": "FL",
    "pop": 15400,
    "lat": 28.50167,
    "lon": -81.54091
  },
  {
    "city": "Lake City",
    "state": "FL",
    "pop": 12046,
    "lat": 30.18968,
    "lon": -82.63929
  },
  {
    "city": "Lake Clarke Shores",
    "state": "FL",
    "pop": 3376,
    "lat": 26.64534,
    "lon": -80.07588
  },
  {
    "city": "Lake Forest",
    "state": "FL",
    "pop": 5522,
    "lat": 25.97759,
    "lon": -80.1831
  },
  {
    "city": "Lake Hamilton",
    "state": "FL",
    "pop": 1231,
    "lat": 28.04446,
    "lon": -81.62785
  },
  {
    "city": "Lake Helen",
    "state": "FL",
    "pop": 2624,
    "lat": 28.98082,
    "lon": -81.23339
  },
  {
    "city": "Lake Lindsey",
    "state": "FL",
    "pop": 71,
    "lat": 28.63194,
    "lon": -82.36165
  },
  {
    "city": "Lake Lorraine",
    "state": "FL",
    "pop": 7010,
    "lat": 30.44159,
    "lon": -86.56523
  },
  {
    "city": "Lake Lucerne",
    "state": "FL",
    "pop": 9044,
    "lat": 25.96509,
    "lon": -80.24144
  },
  {
    "city": "Lake Magdalene",
    "state": "FL",
    "pop": 28509,
    "lat": 28.07418,
    "lon": -82.47176
  },
  {
    "city": "Lake Panasoffkee",
    "state": "FL",
    "pop": 3551,
    "lat": 28.75582,
    "lon": -82.09481
  },
  {
    "city": "Lake Park",
    "state": "FL",
    "pop": 8155,
    "lat": 26.80034,
    "lon": -80.06643
  },
  {
    "city": "Lake Placid",
    "state": "FL",
    "pop": 2223,
    "lat": 27.2931,
    "lon": -81.36285
  },
  {
    "city": "Lake Sarasota",
    "state": "FL",
    "pop": 4679,
    "lat": 27.29255,
    "lon": -82.4376
  },
  {
    "city": "Lake Mary",
    "state": "FL",
    "pop": 13822,
    "lat": 28.75888,
    "lon": -81.31784
  },
  {
    "city": "Lake Wales",
    "state": "FL",
    "pop": 14225,
    "lat": 27.90141,
    "lon": -81.58591
  },